LOCATION,FORMAL_NAME,LOC_CODE,PARK_TYPE,PARK_CLASS,GIS_ACRES,DESIGNATED,FIRST_AQ_DATE,MASTER_PLAN,MAINT_DIST,COUNCIL_DIST,POLICE_DIST,CROSS_STREETS,ADDRESS_ID,ADDRESS_LINE1,ADDRESS_LINE2,CITY,STATE,ZIP,LATITUDE,LONGITUDE,MARKETING_CODE,FACILITIES,DIAGRAM,PHOTO,PARCEL_MATCH,BND_QC,GLOBALID
Benedict Fountain,Benedict Fountain Park,310,Park,Neighborhood,2.91088055,Yes,1924,2009,NW,8,6,20th Av & Logan St,,401 E 20th Ave,,Denver,CO,,39.74797401,-104.98228625,PK,"Benches, Picnic Tables, Fountain, Passive Open Space",documents/parkart/ParkArt_Benedict Fountain Park.pdf,images/Parks/benedictfountainpark.jpg,Yes,2009-09-16 00:00:00,{00000000-0000-0000-0000-000000000000}
Centennial,Centennial Park,901,Park,Special Use,5.50004907,No,1976,None,NW,9,6,Speer Blvd & Elitch Cir,,1301 Elitch Cir,,Denver,CO,,39.75254786,-105.0099448,PK,"Benches, Fountain, Bike/Pedestrian Path, South Platte River Trail, Flower Beds, Natural Areas, Restroom, Drinking Fountain",documents/parkart/ParkArt_Centennial Park.pdf,images/Parks/centennialpark.jpg,Yes,2009-09-29 00:00:00,{00000000-0000-0000-0000-000000000000}
Denver Botanic Gardens,Denver Botanic Gardens,356,Park,Special Use,22.75185205,Partial,1950,2007,E,10,3,10th Av & York St,"66,355",1005 N York St,,Denver,CO,,39.7319543,-104.96187523,,"Gardens, Fountains, Paid Admission Required",0,images/Parks/no_imagerec.gif,Yes,2009-09-16 00:00:00,{00000000-0000-0000-0000-000000000000}
Florida & Raritan,Sanderson Gulch - Florida & Raritan,851,Park,Community,15.61242555,Partial,1951,2010,SW,7,4,Florida Av & Raritan St,,1800 W Florida Ave,,Denver,CO,,39.68889698,-105.01212294,,"Bike/Pedestrian Path, Sanderson Gulch Trail, Basball / Softball Field, Picnic Tables, Natural Areas",documents/parkart/ParkArt_Sanderson Gulch Open Space.pdf,images/Parks/sandersongulchpark.jpg,Yes,2009-08-11 00:00:00,{00000000-0000-0000-0000-000000000000}
Lowry Open Space,Lowry Open Space,L28,Open Space,Open Space,57.86509148,Partial - 2014 May,2013,2000,NE,5,3,Yosemite St & Sports Blvd,,,,Denver,CO,,39.71717626,-104.8893935,,"Dog Park, Natural Areas, Bike/Pedestrian Path",,,No,2014-03-06 00:00:00,{00000000-0000-0000-0000-000000000000}
Montclair Rec Center,Montclair Recreation Center,L12,Grounds,Rec Center,5.61381789,No,2002,None,NE,5,3,8th Ave & Ulster Wy,"174,032",729 N Ulster Way,,Denver,CO,,39.72742602,-104.89508112,,Unlisted,0,,Yes,2014-01-01 00:00:00,{00000000-0000-0000-0000-000000000000}
Parkfield,Parkfield,516,Park,Regional,88.32405508,Yes - 2013 January,1992,2008,NE,11,5,53rd Av & Chambers Rd,"171,998",15555 E 53rd Ave,,Denver,CO,,39.79181259,-104.8050647,PK,"Recreation Center, Natural Areas, Picnic Shelter, Benches, Picnic Tables, Restroom, Playground, Skate Park, Tennis Court, Basketball Court, Baseball / Softball Field, Football Field, Soccer Field, Interactive Fountain, Lake, Picnic Area, Dog Park",documents/parkart/ParkArt_Parkfield.pdf,images/Parks/parkfieldpark.jpg,Yes,2009-05-19 00:00:00,{00000000-0000-0000-0000-000000000000}
Echo Lake,Echo Lake Park,M19,Park,Mountain,602.75909872,Yes,0,2008,MP,None,None,,,13261 State Highway 103,,Idaho Springs,CO,80452,39.6593635,-105.60132791,MP,"Echo Lake Lodge, Restaurant, Historic Shelter, Picnic Area, Picnic Tables, Grills, Restroom, Fishing, Trails & Trail Connections",documents/parkart/Echo_Lake_Parkmap.pdf,images/Parks/echolakepark.jpg,,2010-05-24 00:00:00,{00000000-0000-0000-0000-000000000000}
Skyline,Skyline Park,332,Park,Special Use,2.56072035,Yes,1973,2002,NW,8,6,Arapahoe St -15th St To 18th St,"55,156",1701 Arapahoe St,,Denver,CO,,39.74943629,-104.99408403,PK,"Plaza, Fountain, Picnic Tables, Restroom, Benches, Drinking Fountain",documents/parkart/ParkArt_Skyline Park.pdf,images/Parks/skylinepark.jpg,Yes,2009-12-11 00:00:00,{00000000-0000-0000-0000-000000000000}
Bergen ,Bergen Park,M04,Park,Mountain,21.22474476,Yes,0,2008,MP,None,None,,,1450 Old Highway 74,,Evergreen,CO,80439,39.68988123,-105.361994,MP,"Picnic Shelter, Picnic Area, Tables, Grills, Restroom, Volleyball Court, Horseshoe Pits, Trail Connections: Pioneer Trail, Buchanan Park Trail, Historic Stone Wellhouse",documents/parkart/Bergen_ParkMap.pdf,images/Parks/bergenmtnpark.jpg,,2010-05-14 00:00:00,{00000000-0000-0000-0000-000000000000}
Flying J. Ranch,Flying J. Ranch Tracts,M24,Conservation Tract,Mountain,76.57477528,Yes,1926,2008,MP,None,None,,,,,,CO,,39.54307178,-105.32764308,,"Scenic View, Wildlife Habitat, Natural Open Space",0,images/Parks/flyingjranchpark.jpg,,2010-05-21 00:00:00,{00000000-0000-0000-0000-000000000000}
Legault Mountain,Legault Mountain Tracts,M30,Conservation Tract,Mountain,134.7896963,Yes,1924,2008,MP,None,None,,,,,,CO,,39.53270403,-105.24507263,,"Scenic View, Natural Open Space",0,images/Parks/no_imagerec.gif,,2010-05-14 00:00:00,{00000000-0000-0000-0000-000000000000}
Deer Creek,Deer Creek Tract,M16,Conservation Tract,Mountain,88.79091534,Yes,0,2008,MP,None,None,,,13200 Deer Creek Canyon Road,,Littleton,CO,80127,39.54998961,-105.14575712,,"Riparian Natural Areas, Fishing",0,images/Parks/deercreekpark.jpg,,2010-05-14 00:00:00,{00000000-0000-0000-0000-000000000000}
Diamond Hill,Diamond Hill Promenade,53,Open Space,Open Space,1.98823701,Not Eligible,2008,None,NW,1,1,26th Av & Zuni St,"356,940",2600 N Zuni St,,Denver,CO,,39.75273021,-105.01648863,,Bike/Pedestrian Path,documents/parkart/ParkArt_Diamond Hill Promenade.pdf,images/Parks/no_imagerec.gif,No,2009-03-11 00:00:00,{00000000-0000-0000-0000-000000000000}
Eisenhower,Eisenhower (Mamie Doud) Park,630,Park,Community,20.21169233,Yes,1966,None,E,4,3,Dartmouth Av & Colorado Blvd,"143,822",4300 E Dartmouth Ave,,Denver,CO,,39.65955261,-104.93615048,PK,"Recreation Center, Grills, Picnic Shelter, Picnic Tables, Playground, Outdoor Pool, Restroom, Bike/Pedestrian Path, Football Field, Soccer Field, Horseshoe Pits, Tennis Court, Baseball / Softball Field, Flower Beds, Benches, Picnic Area",documents/parkart/ParkArt_Eisenhower (Mamie Doud) Park.pdf,images/Parks/eisenhowerpark.jpg,Yes,2009-01-09 00:00:00,{00000000-0000-0000-0000-000000000000}
Hutchinson East,Hutchinson East Park,605,Open Space,Open Space,5.71255003,No,1973,2002,E,4,3,Dartmouth Av & Tamarac Dr,,8075 E Eastman Ave,,Denver,CO,,39.65870839,-104.89825071,,"Bike/Pedestrian Path, Open Space, Natural Areas",documents/parkart/ParkArt_Hutchinson East Park.pdf,images/Parks/hutchinsonpark.jpg,Yes,2009-01-09 00:00:00,{00000000-0000-0000-0000-000000000000}
La Familia Rec Center,La Familia Recreation Center,748,Grounds,Rec Center,0.85191463,No,1977,None,SW,9,4,Elati St & Archer Pl,"80,199",65 S Elati St,,Denver,CO,,39.71555586,-104.99435154,,Unlisted,0,,Yes,2014-10-09 00:00:00,{00000000-0000-0000-0000-000000000000}
Platte River at Elitch Gardens,Platte River at Elitch Gardens,926,Open Space,Open Space,6.72077529,No,1976,None,NW,9,6,Platte River behind Elitch Gardens,,,,Denver,CO,,39.75040646,-105.01346538,,"Bike/Pedestrian Path, South Platte River Trail, Open Space, Natural Areas",0,images/Parks/no_imagerec.gif,Yes,2014-01-01 00:00:00,{00000000-0000-0000-0000-000000000000}
Ford Pl,Ford Pl,822,Park,Neighborhood,1.42971436,Not Eligible,1966,None,SW,3,4,Ford Pl - Irving St To King St,"94,262",3300 W Ford Pl,,Denver,CO,,39.69870113,-105.03137744,,"Passive Open Space, Benches",0,images/Parks/no_imagerec.gif,Yes,,{00000000-0000-0000-0000-000000000000}
Sand Creek Open Space,Sand Creek Open Space,559,Open Space,Special Use,24.73286351,Not Eligible,,None,NE,11,2,39th Ave & Xanthia St,"11,304",8601 E 39th Ave,,Denver,CO,,39.77260216,-104.88972613,,"Open Space, Natural Areas, Prairie Dog Habitat, Future Trunk Open Space",0,images/Parks/no_imagerec.gif,Yes,2010-03-18 00:00:00,{00000000-0000-0000-0000-000000000000}
Cranmer,Cranmer Park,407,Park,Community,24.16863041,Yes,1907,None,E,5,3,2nd Av & Cherry St,,4501 E 1st Ave,,Denver,CO,,39.71934829,-104.93549784,PK,"Benches, Drinking Fountain, Picnic Tables, Plaza, Flower Beds, Football Field, Soccer Field, Baseball / Softball Field, Scenic Views, Picnic Area",documents/parkart/ParkArt_Cranmer Park.pdf,images/Parks/cranmerpark.jpg,Yes,2008-12-02 00:00:00,{00000000-0000-0000-0000-000000000000}
Garfield Lake,Garfield Lake Park,807,Park,Community,29.0264922,Yes,1949,None,SW,3,4,Lowell Blvd & Mississippi Av,"97,182",3600 W Mississippi Ave,,Denver,CO,,39.69542306,-105.03556208,PK,"Lake, Benches, Picnic Tables, Outdoor Pool, Bike/Pedestrian Path, Baseball / Softball Field, Basketball Court, Fitness Course, Futsol Court, Football Field, Restroom, Playground, Picnic Area",documents/parkart/ParkArt_Garfield Lake Park.pdf,images/Parks/garfieldlakepark.jpg,No,2011-03-31 00:00:00,{00000000-0000-0000-0000-000000000000}
Grant Frontier,Grant Frontier Park,909,Park,Neighborhood,8.87755115,Partial,1920,None,SW,7,4,Platte River Dr & Warren Av,"356,997",2300 S Platte River Dr,,Denver,CO,,39.67397495,-104.99685738,PK,"Historical Site, Picnic Tables, Bike/Pedestrian Path, South Platte River Trail, Natural Areas, Playground, Drinking Fountain",documents/parkart/ParkArt_Grant Frontier Park.pdf,images/Parks/grantfrontierpark.jpg,Yes,2009-05-28 00:00:00,{00000000-0000-0000-0000-000000000000}
Washington,Washington Park,711,Park,Regional,157.48280079,Yes,1898,2011,SW,6,3,Downing St & Louisiana Av,"88,318",701 S Franklin St,,Denver,CO,,39.70007709,-104.97096086,PK,"Recreation Center, Flower Beds, Picnic Shelter, Benches, Drinking Fountain, Grills, Picnic Tables, Playground, Lake, Restroom, Tennis Court, Basketball Court, Bike/pedestrian Path, Horseshoe Pits, Lawn Bowling, Joggin Path, Picnic Area",documents/parkart/ParkArt_Washington Park.pdf,images/Parks/washingtonpark.jpg,Yes,2008-12-23 00:00:00,{00000000-0000-0000-0000-000000000000}
Inspiration Point,Inspiration Point Park,5,Park,Community,25.49842213,Yes,1907,None,NW,1,1,49th Av & Sheridan Blvd,"59,261",4901 N Sheridan Blvd,,Denver,CO,,39.7866249,-105.05673809,PK,"Picnic Tables, Benches, Bike/Pedestrian Path, Flower Beds, Natural Areas, Scenic Overlook",documents/parkart/ParkArt_Inspiration Point Park.pdf,images/Parks/inspirationpointpark.jpg,Yes,2009-08-11 00:00:00,{00000000-0000-0000-0000-000000000000}
Vanderbilt East,Vanderbilt East Park,832,Future,Undeveloped,3.50734888,Yes,1922,None,SW,7,4,Ohio Av & Santa Fe Dr,"90,684",300 W Ohio Ave,,Denver,CO,,39.70133589,-104.99270822,,Undeveloped Park,documents/parkart/ParkArt_Vanderbilt East Park.pdf,images/Parks/vanderbiltpark.jpg,Yes,2009-07-17 00:00:00,{00000000-0000-0000-0000-000000000000}
Cheesman Esplanade,Cheesman Park Esplanade,313,Park,Neighborhood,2.66052374,Yes,1911,None,E,10,6,7th Av & Williams St,"356,740",750 N Williams St,,Denver,CO,,39.72819308,-104.96529818,,Passive Open Space,documents/parkart/ParkArt_Cheesman Park Esplanade.pdf,images/Parks/cheesmanpark.jpg,Yes,2009-01-21 00:00:00,{00000000-0000-0000-0000-000000000000}
Northside,Northside Park,912,Park,Neighborhood,14.33929404,No,1998,2001,NW,9,2,51St & Downing St,,1400 E 53rd Ave,,Denver,CO,,39.7903327,-104.97241494,PK,"Bike/Pedestrian Path, Soccer Field, Drinking Fountain, South Platte River Trail",documents/parkart/ParkArt_Northside Park.pdf,images/Parks/northsidepark.jpg,No,2009-04-28 00:00:00,{00000000-0000-0000-0000-000000000000}
Mestizo-Curtis,Mestizo-Curtis Park,203,Park,Neighborhood,8.5231239,Yes,1868,2002,NW,8,6,31st Av & Curtis St,"42,599",3000 Curtis St,,Denver,CO,,39.76147909,-104.97555482,PK,"Picnic Tables, Benches, Playground, Outdoor Pool, Picnic Shelter, Basketball Court, Tennis Court, Bike/Pedestrian Path, Picnic Area",documents/parkart/ParkArt_Mestizo-Curtis Park.pdf,images/Parks/mestizocurtispark.jpg,Yes,2009-07-17 00:00:00,{00000000-0000-0000-0000-000000000000}
St Charles Pl,St. Charles Place Park,207,Park,Neighborhood,2.45571515,Partial,1915,None,NW,8,2,38th Av & Lafayette St,"40,021",3777 N Lafayette St,,Denver,CO,,39.76950856,-104.97143059,PK,"Recreation Center, Benches, Picnic Tables, Playground, Baseball / Softball Field, Basketball Court",documents/parkart/ParkArt_St. Charles Place Park.pdf,images/Parks/stcharlespark.jpg,No,2009-07-29 00:00:00,{00000000-0000-0000-0000-000000000000}
Robinson,Robinson Park,414,Park,Neighborhood,6.79142802,Yes,1941,None,E,5,3,3rd Av & Fairfax St,"264,359",200 N Fairfax St,,Denver,CO,,39.72020352,-104.92692905,PK,"Drinking Fountain, Benches, Picnic Tables, Playground, Restroom, Basketball Court, Football Field, Baseball / Softball FIeld, Bleachers, Picnic Area",documents/parkart/ParkArt_Robinson Park.pdf,images/Parks/robinsonpark.jpg,Yes,2008-12-02 00:00:00,{00000000-0000-0000-0000-000000000000}
City of Chennai,City of Chennai Park,660,Park,Neighborhood,7.71037883,Yes,1977,None,E,6,3,Cherry Creek & Quebec St,"356,780",1600 S Quebec St,,Denver,CO,,39.68651579,-104.90217723,PK,"Benches, Bike/Pedestrian Path, Natural Areas",documents/parkart/ParkArt_City of Chennai Park.pdf,images/Parks/citychenniapark.jpg,Yes,2008-12-12 00:00:00,{00000000-0000-0000-0000-000000000000}
Cheesman,Cheesman Park,312,Park,Regional,80.7644914,Yes,1890,2008,E,10,6,8th Av & Franklin St,"356,584",1599 E 8th Ave,,Denver,CO,,39.73278789,-104.96645337,PK,"Benches, Drinking Fountain, Pavilion, Picnic Tables, Playground, Flower Beds, Fountain, Walking/Jogging Path, Bike/Pedestrian Path, Shelter, Scenic Views, Picnic Area",documents/parkart/ParkArt_Cheesman Park.pdf,images/Parks/cheesmanpark.jpg,Yes,2009-01-21 00:00:00,{00000000-0000-0000-0000-000000000000}
Buchtel Centennial,Buchtel Centennial Park,710,Park,Pocket,0.01208652,Yes,1927,None,SW,6,3,Buchtel Blvd & Josephine St,"356,728",1890 S Josephine St,,Denver,CO,,39.68216373,-104.95770073,PK,"Passive Open Space, Memorial / Monument",documents/parkart/ParkArt_Buchtel Centennial Park.pdf,images/Parks/buchtelcentennialpark.jpg,Yes,2008-12-23 00:00:00,{00000000-0000-0000-0000-000000000000}
Silverman,Silverman (Melvin F) Park,534,Park,Neighborhood,8.99355269,Yes,1966,None,NE,11,5,Andrews Dr & Titan Ct,"9,157",12875 E Andrews Dr,,Denver,CO,,39.78582173,-104.84029108,PK,"Benches, Picnic Shelter, Picnic Tables, Playground, Restroom, Drinking Fountain, Basketball Court, Football Field, Bike/Pedestrian Path, Picnic Area",documents/parkart/ParkArt_Silverman (Melvin F) Park.pdf,images/Parks/silvermanpark.jpg,Yes,2008-11-25 00:00:00,{00000000-0000-0000-0000-000000000000}
46th & Pecos,Unnamed 46th & Pecos Park,25,Park,Neighborhood,3.49010907,No,1948,None,NW,9,1,46th Av & Pecos St,"366,280",4601 N Pecos St,,Denver,CO,,39.78080377,-105.00722351,PK,"Football Field, Baseball / Softball Field ",documents/parkart/ParkArt_Unnamed 46th & Pecos Park.pdf,images/Parks/46thpecospark.jpg,No,2009-02-26 00:00:00,{00000000-0000-0000-0000-000000000000}
Maestas,Maestas (Eddie) Park,311,Park,Pocket,0.18070513,Yes,0,None,NW,9,6,Broadway & Lawrence,"54,847",2300 Lawrence St,,Denver,CO,,39.75507692,-104.98768417,,"Benches, Public Art",documents/parkart/ParkArt_Eddie Maestas Park.pdf,images/Parks/no_imagerec.gif,Yes,2009-08-11 00:00:00,{00000000-0000-0000-0000-000000000000}
Martinez,Martinez (Joseph P) Park,29,Park,Neighborhood,11.67095641,Yes,1956,1998,NW,3,1,9th Av & Tennyson St,,900 N Raleigh St,,Denver,CO,,39.73055615,-105.04164816,PK,"Picnic Tables, Playground, Basketball Court, Baseball / Softball Field, Bike/Pedestrian Path, Lakewood Gulch Trail",documents/parkart/ParkArt_Martinez (Joseph P) Park.pdf,images/Parks/martinezpark.jpg,Yes,2009-02-09 00:00:00,{00000000-0000-0000-0000-000000000000}
Golden Key,Golden Key Park,607,Park,Neighborhood,2.83246388,Yes,1967,None,E,4,3,Syracuse Way & Xeric Ct,,2900 S Syracuse Way,,Denver,CO,,39.66314864,-104.88675533,PK,"Picnic Tables, Playground, Basketball Court, Bike/pedestrian Path, Benches",documents/parkart/ParkArt_Golden Key Park.pdf,images/Parks/goldenkeypark.jpg,Yes,2009-01-09 00:00:00,{00000000-0000-0000-0000-000000000000}
Mount Judge,Mount Judge Tract,M35,Conservation Tract,Mountain,351.70125091,Yes,0,2008,MP,None,None,,,,,,CO,,39.6639288,-105.45209212,,"Scenic View, Wildlife Habitat, Natural Open Space",0,images/Parks/no_imagerec.gif,,2010-05-24 00:00:00,{00000000-0000-0000-0000-000000000000}
Garland,Garland (David T) Park,728,Park,Community,50.33083264,Yes,1955,None,E,6,3,Holly St & Mississippi Av,"139,068",6300 E Mississippi Ave,,Denver,CO,,39.69538813,-104.91688158,PK,"Lake, Benches, Flower Beds, Drinking Fountain, Picnic Tables, Playground, Restroom, Baseball / Softball Field, Basketball Court, Bike/Pedestrian Path, Football Field, Sand Volleyball Court, Tennis Court, Picnic Area",documents/parkart/ParkArt_Garland (David T) Park.pdf,images/Parks/garlandpark.jpg,No,2008-12-12 00:00:00,{00000000-0000-0000-0000-000000000000}
Derby Canal,Derby Canal,563,Future,Undeveloped,6.5587252,Not Eligible,2008,None,NE,11,5,45th Av & Telluride St,,4500 N Telluride St,,Denver,CO,,39.78238872,-104.78509632,,Undeveloped Park,0,images/Parks/no_imagerec.gif,Yes,2009-05-28 00:00:00,{00000000-0000-0000-0000-000000000000}
Harvard Gulch West,Harvard Gulch West,145,Park,Neighborhood,12.02612135,Partial,1970,2010,SW,7,4,Decatur St & Vassar Av,"118,037",2525 S Decatur St,,Denver,CO,,39.67118135,-105.02381763,PK,"Recreation Center, Baseball / Softball Field, Playground, Benches, Picnic Tables, Bike/Pedestrian Path, West Harvard Gulch Trail, Basketball Court",documents/parkart/ParkArt_Harvard Gulch West Park.pdf,images/Parks/harvardgulchwestpark.jpg,Yes,2009-06-25 00:00:00,{00000000-0000-0000-0000-000000000000}
Ruby Hill,Ruby Hill Park,827,Park,Regional,81.94096143,Yes - 2013 April,1919,2008,SW,7,4,Florida Av & Platte River Dr,"248,356",1200 W Florida Ave,,Denver,CO,,39.68601426,-105.00390377,PK,"Picnic Shelter, Picnic Tables, Benches, Playground, Outdoor Pool, Restroom, Baseball / Softball Field, Bike/Pedestrian Path, Natural Areas, Drinking Fountain, Flower Beds, Pavilion, Picnic Area",documents/parkart/ParkArt_Ruby Hill Park.pdf,images/Parks/rubyhillpark.jpg,No,2009-05-28 00:00:00,{00000000-0000-0000-0000-000000000000}
Byers & Pecos,Unnamed Byers & Pecos Park,831,Park,Pocket,0.99196919,Yes,1966,None,SW,7,4,Byers Pl & Pecos St,"366,374",1400 W Byers Pl,,Denver,CO,,39.71189448,-105.00701228,PK,"Benches, Playground, Basketball Court, Picnic Tables",documents/parkart/ParkArt_Unnamed Byers & Pecos Park.pdf,images/Parks/byerspecospark.jpg,Yes,2009-07-17 00:00:00,{00000000-0000-0000-0000-000000000000}
Jefferson,Jefferson Park,16,Park,Neighborhood,6.64940498,Yes,1899,None,NW,1,1,22nd Av & Clay St,"52,168",2201 N Clay St,,Denver,CO,,39.75060468,-105.02208039,PK,"Benches, Picnic Shelter, Picnic Tables, Playground, Restroom, Drinking Fountain, Basketball Court, Picnic Area",documents/parkart/ParkArt_Jefferson Park.pdf,images/Parks/jeffersonpark.jpg,Yes,2008-11-20 00:00:00,{00000000-0000-0000-0000-000000000000}
Central Park Rec Center,Central Park Rec Center,567,Grounds,Rec Center,10.59726672,No,2010,None,NE,11,2,MLK Blvd & Elmira St,"350,100",9651 E Martin Luther King Jr Blvd,,Denver,CO,,39.76087548,-104.87453712,,"Recreation Center, Bike/Pedestrian Path",,,Yes,2011-02-14 00:00:00,{00000000-0000-0000-0000-000000000000}
Zeckendorf Plaza,Zeckendorf Plaza Park,335,Park,Pocket,0.34146351,Yes,1966,None,NW,10,3,Broadway & Speer Blvd,,675 N Lincoln St,,Denver,CO,,39.72704633,-104.98650793,PK,"Picnic Tables, Public Art",documents/parkart/ParkArt_Zeckendorf Plaza Park.pdf,images/Parks/zeckendorfpark.jpg,Yes,2009-01-21 00:00:00,{00000000-0000-0000-0000-000000000000}
Barnum East,Barnum East Park,803,Park,Athletic Multiuse Complex,12.15351307,Yes,1937,In Progress,SW,9,4,5th Av & Federal Blvd,"75,508",500 N Federal Blvd,,Denver,CO,,39.72425186,-105.02361821,PK,"Drinking Fountain, Restroom, Baseball / Softball Field Complex, Bleachers",documents/parkart/ParkArt_Barnum East Park.pdf,images/Parks/barnumparkeast.jpg,No,2009-02-09 00:00:00,{00000000-0000-0000-0000-000000000000}
Flores,Flores (Hector M) Park,322,Park,Pocket,0.35969372,Yes,1971,None,SW,9,4,4th Av & Galapago St,"79,245",621 W 4th Ave,,Denver,CO,,39.72278504,-104.9960523,PK,"Picnic Tables, Playground, Basketball Court, Drinking Fountain, Benches",documents/parkart/ParkArt_Flores (Hector M) Park.pdf,images/Parks/florespark.jpg,Yes,2009-01-21 00:00:00,{00000000-0000-0000-0000-000000000000}
Jackie Robinson Fields,Jackie Robinson Fields,L10,Park,Athletic Multiuse Complex,19.63968889,Yes - 2014 May,2000,2000,NE,5,3,Lowry Blvd Pkwy & Uinta Way,"157,887",8250 E Lowry Blvd,,Denver,CO,,39.71892159,-104.89003945,PK,"Baseball / Softball Field Complex, Press Box, Restroom, Pavilion, Drinking Fountain, Benches",documents/parkart/ParkArt_Jackie Robinson Fields.pdf,images/Parks/jackierobinsonpark.jpg,No,2009-05-19 00:00:00,{00000000-0000-0000-0000-000000000000}
Sanderson Gulch,Sanderson Gulch,828,Open Space,Open Space,52.33150645,Partial,1951,2010,SW,2/7,4,Platte River to Sheridan Blvd,,4000 W Mexico Ave,,Denver,CO,,39.69216699,-105.00285133,PK,"Playground, Bike/Pedestrian Path, Sanderson Gulch Trail, Basketball Court, Baseball / Softball Field, Natural Areas, Picnic Tables, Benches",documents/parkart/ParkArt_Sanderson Gulch Open Space.pdf,images/Parks/sandersongulchpark.jpg,No,2009-08-11 00:00:00,{00000000-0000-0000-0000-000000000000}
Willis Case Golf Course,Willis Case Municipal Golf Course,GW2,Golf,Golf,119.44693346,Yes,1906,None,NW,1,1,50th Av & Tennyson St,"26,175",4600 W 50th Ave,,Denver,CO,,39.78801322,-105.05089067,,Unlisted,documents/parkart/WillisCaseGolfCourse.pdf,,No,2009-08-11 00:00:00,{00000000-0000-0000-0000-000000000000}
Lake of Lakes,Lake of Lakes Park,157,Open Space,Open Space,5.61392021,Yes,1975,None,SW,2,4,Balsam St & Quincy Av,"168,641",8300 W Quincy Ave,,Denver,CO,,39.63804571,-105.09006873,,"Lake, Open Space, Natural Areas",documents/parkart/ParkArt_Lake of Lakes Park.pdf,images/Parks/no_imagerec.gif,Yes,2009-08-14 00:00:00,{00000000-0000-0000-0000-000000000000}
Strain Gulch,Strain Gulch Tract,M49,Conservation Tract,Mountain,38.66607913,Yes,1924,2008,MP,None,None,,,,,,CO,,39.63284623,-105.20957812,,"Scenic View, Natural Open Space",0,images/Parks/no_imagerec.gif,,2010-05-14 00:00:00,{00000000-0000-0000-0000-000000000000}
Mount Falcon,Mount Falcon Tract,M34,Conservation Tract,Mountain,84.42883873,Yes,1924,2008,MP,None,None,,,,,,CO,,39.62587029,-105.21726227,,"Scenic View, Natural Open Space",documents/parkart/ParkArt_mtfalcmp.pdf,images/Parks/mtfalconpark.jpg,,2010-05-14 00:00:00,{00000000-0000-0000-0000-000000000000}
Birch Hill,Birch Hill Tract,M07,Conservation Tract,Mountain,163.74284126,Yes,0,2008,MP,None,None,,,,,,CO,,39.6041181,-105.24514682,,"Scenic View, Wildlife Habitat, Natural Open Space",0,images/Parks/no_imagerec.gif,,2010-05-14 00:00:00,{00000000-0000-0000-0000-000000000000}
Stanley,Stanley Park Tract,M46,Conservation Tract,Mountain,74.30817413,Yes,1924,2008,MP,None,None,,,,,,CO,,39.60582044,-105.28463527,,"Scenic View, Natural Open Space",0,images/Parks/no_imagerec.gif,,2010-05-21 00:00:00,{00000000-0000-0000-0000-000000000000}
Bell,Bell Park,M03,Park,Mountain,477.13617682,Yes,1924,2008,MP,None,None,,,,,,CO,,39.61636477,-105.30069193,,"Scenic View, Natural Open Space",0,images/Parks/no_imagerec.gif,,2010-05-20 00:00:00,{00000000-0000-0000-0000-000000000000}
Cub Creek,Cub Creek Park,M13,Park,Mountain,520.53095631,Yes,1922,2008,MP,None,None,,,5700 South Brook Forest Road,,Evergreen,CO,80439,39.61571315,-105.32416549,MP,"Picnic Area, Picnic Tables, Restroom",,images/Parks/cubcreekpark.jpg,,2010-05-21 00:00:00,{00000000-0000-0000-0000-000000000000}
Dedisse,Dedisse Park,M15,Park,Mountain,420.55218804,Yes,0,2008,MP,None,None,,,29200 Upper Bear Creek Road,,Evergreen,CO,80439,39.6321983,-105.33414325,MP,"Historic Shelter, Picnic Area, Tables, Grills, Volleyball Court, Horseshoe Pits, Lake, Lakehouse, Boat Rentals, Ice Skating, Events, Trail, Golf Course, Clubhouse, Restaurant, Nature Center, Pioneer Trail, Dedisse Park Trail",documents/parkart/Dedisse_ParkMap.pdf,images/Parks/dedissepark.jpg,,2010-05-14 00:00:00,{00000000-0000-0000-0000-000000000000}
Observatory,Observatory Park,818,Park,Neighborhood,10.4461719,Yes,1904,None,SW,6,3,Evans Av & Fillmore St,"110,290",2100 S Fillmore St,,Denver,CO,,39.67571245,-104.95296523,PK,"Observatory, Picnic Tables, Playground, Restroom, Drinking Fountain, Basketball Court, Multi-purpose Field (Lacrosse, Rugby, Soccer), Baseball / Softball Field, Tennis Court, Picnic Area",documents/parkart/ParkArt_Observatory Park.pdf,images/Parks/observatorypark.jpg,Yes,2008-12-23 00:00:00,{00000000-0000-0000-0000-000000000000}
Elephant Butte,Elephant Butte Tract,M20,Conservation Tract,Mountain,630.04679623,Yes,1924,2008,MP,None,None,,,,,,CO,,39.62973304,-105.37472333,,"Wilderness Area, Scenic View, Wildlife Habitat",0,images/Parks/no_imagerec.gif,,2010-05-21 00:00:00,{00000000-0000-0000-0000-000000000000}
Hobbs Peak,Hobbs Peak Tract,M29,Conservation Tract,Mountain,38.84938139,Yes,0,2008,MP,None,None,,,,,,CO,,39.59294731,-105.30288831,,"Scenic View, Natural Open Space",0,images/Parks/no_imagerec.gif,,2010-05-21 00:00:00,{00000000-0000-0000-0000-000000000000}
Platt,Platt (James H) Park,824,Park,Neighborhood,3.72641791,Yes,1894,2002,SW,7,4,Iowa Av & Logan St,"165,158",1500 S Grant St,,Denver,CO,,39.68848321,-104.98340258,PK,"Recreation Center, Library, Flemming Mansion (Special Use), Drinking Fountain, Benches, Picnic Tables, Playground, Basketball Court, Horseshoe Pits",documents/parkart/ParkArt_Platt (James H) Park.pdf,images/Parks/plattpark.jpg,Yes,2009-06-25 00:00:00,{00000000-0000-0000-0000-000000000000}
Athmar,Athmar Park,802,Park,Neighborhood,3.29292827,Yes,1977,None,SW,7,4,Clay St & Mexico Av,"102,036",2680 W Mexico Ave,,Denver,CO,,39.6851676,-105.01972179,PK,"Recreation Center, Picnic Tables, Horseshoe Pits, Baseball / Softball Field",documents/parkart/ParkArt_Athmar Park.pdf,images/Parks/athmarpark.jpg,Yes,2009-06-25 00:00:00,{00000000-0000-0000-0000-000000000000}
Pinecrest Village,Pinecrest Village Park,161,Park,Neighborhood,7.12265672,Yes,1963,None,SW,2,4,Chase St & Lehigh Av,"154,331",5300 W Lehigh Ave,,Denver,CO,,39.64668384,-105.05556228,PK,"Playground, Baseball / Softball Field, Soccer Field, Benches, Horseshoe Pits, Bike/Pedestrian Path",documents/parkart/ParkArt_Pinecrest Village Park.pdf,images/Parks/pinecrestvillagepark.jpg,Yes,2009-06-25 00:00:00,{00000000-0000-0000-0000-000000000000}
Pinehurst,Pinehurst Park,159,Park,Neighborhood,13.6992457,Yes,1975,None,SW,2,4,Quincy Av & Wolff St,"366,224",4600 W Quincy Ave,,Denver,CO,,39.63758808,-105.0474722,PK,"Picnic Shelter, Picnic Tables, Benches, Playground, Basketball Court, Soccer Field, Bike/Pedestrian Path, Drinking Fountain",documents/parkart/ParkArt_Pinehurst Park.pdf,images/Parks/pinehurstpark.jpg,Yes,2009-06-25 00:00:00,{00000000-0000-0000-0000-000000000000}
Cook,Cook (Judge Joseph E) Park,763,Park,Community,37.85856832,Yes,1954,None,E,6,3,Florida Av & Monaco Pkwy,"190,239",7100 E Cherry Creek South Dr,,Denver,CO,,39.68719896,-104.91017132,PK,"Recreation Center, Outdoor Pool, Benches, Picnic Shelter, Picnic Tables, Playground, Restroom, Drinking Fountain, Basketball Court, Bike/Pedestrian Path, Soccer Field, Baseball / Softball Field, Natural Areas, Picnic Area",documents/parkart/ParkArt_Cook (Judge Joseph E) Park.pdf,images/Parks/cookpark.jpg,Yes,2008-12-12 00:00:00,{00000000-0000-0000-0000-000000000000}
Babi-Yar,Babi-Yar Park,601,Park,Community,25.21037694,Partial,1970,2006,E,4,3,Havana St & Parker Rd,"140,903",10451 E Yale Ave,,Denver,CO,,39.669062,-104.86810207,PK,"Benches, Fountain, Memorial / Monument, Natural Areas, Bike/Pedestrian Path, Parking Lot",documents/parkart/ParkArt_Babi-Yar Park.pdf,images/Parks/babiyarpark.jpg,No,2009-01-09 00:00:00,{00000000-0000-0000-0000-000000000000}
Garland & Saratoga,Unnamed Garland & Saratoga Park,166,Park,Neighborhood,5.05656888,Yes,1979,None,SW,2,4,Garland St & Saratoga Pl,"366,375",4901 S Garland St,,Denver,CO,,39.62715529,-105.10346507,PK,"Benches, Picnic Tables, Playground, Bike/Pedestrian Path, Flower Beds",documents/parkart/ParkArt_Unnamed Garland & Saratoga Park.pdf,images/Parks/garlandsaratogapark.jpg,Yes,2008-11-10 00:00:00,{00000000-0000-0000-0000-000000000000}
Lawson,Lawson (Sonny) Park,208,Park,Neighborhood,2.48476817,Yes,1911,None,NW,8,6,23rd St & Welton St,"356,582",2301 Welton St,,Denver,CO,,39.75185879,-104.98268713,PK,"Drinking Fountain, Playground, Restroom, Basketball Court, Baseball / Softball Field, Benches, Ping Pong Table",documents/parkart/ParkArt_Lawson (Sonny) Park.pdf,images/Parks/lawsonpark.jpg,Yes,2009-02-04 00:00:00,{00000000-0000-0000-0000-000000000000}
Ferguson,Ferguson (WH) Park,421,Park,Pocket,0.26370715,Yes,1967,None,NE,8,2,23rd Av & Dexter St,"18,166",4716 E 23rd Ave,,Denver,CO,,39.75081245,-104.93251192,PK,"Benches, Picnic Shelter, Picnic Tables, Playground",documents/parkart/ParkArt_Ferguson (WH) Park.pdf,images/Parks/fergusonpark.jpg,Yes,2008-12-02 00:00:00,{00000000-0000-0000-0000-000000000000}
Pulaski,Pulaski Park,319,Park,Community,13.39420141,Yes,1947,None,E,10,3,Bayaud Av & Steele St.,"85,101",3300 E Bayaud Ave,,Denver,CO,,39.71332344,-104.9478169,PK,"Drinking Fountain, Picnic Tables, Playground, Restroom, Tennis Court, Gates Tennis Center, Picnic Area",documents/parkart/ParkArt_Pulaski Park.pdf,images/Parks/pulaskipark.jpg,No,2008-12-12 00:00:00,{00000000-0000-0000-0000-000000000000}
West-Bar-Val-Wood,West-Bar-Val-Wood Park,838,Park,Neighborhood,12.66431292,Yes,1955,None,SW,3,4,Bayaud Av & Tejon St,"78,224",2001 W Cedar Ave,,Denver,CO,,39.71393486,-105.01275942,PK,"Picnic Tables, Playground, Basketball Court, Football Field, Baseball / Softball Field, Bleachers, Bike/Pedestrian Path",documents/parkart/ParkArt_West-Bar-Val-Wood Park.pdf,images/Parks/wesbarvalwoodpark.jpg,Yes,2009-02-26 00:00:00,{00000000-0000-0000-0000-000000000000}
Snyder Mountain,Snyder Mountain Tracts,M45,Conservation Tract,Mountain,236.25794537,Yes,1926,2008,MP,None,None,,,,,,CO,,39.66489558,-105.42860319,,"Scenic View, Natural Open Space",0,images/Parks/no_imagerec.gif,,2010-05-24 00:00:00,{00000000-0000-0000-0000-000000000000}
Argo,Argo Park,212,Park,Neighborhood,12.0513956,Yes,1906,None,NW,9,2,47th Av & Logan St,"181,372",4700 N Logan St,,Denver,CO,,39.78432135,-104.98233571,PK,"Picnic Tables, Picnic Shelter, Playground, Outdoor Pool, Basketball Court, Football Field, Soccer Field, Baseball / Softball Field",documents/parkart/ParkArt_Argo Park.pdf,images/Parks/argopark.jpg,No,2013-05-01 00:00:00,{00000000-0000-0000-0000-000000000000}
Berkeley & Burlington,Unnamed Berkeley & Burlington Park,21,Park,Pocket,0.16671436,Yes,1946,None,NW,9,1,Berkeley Pl & Burlington Pl,"366,282",1800 W Berkeley Pl,,Denver,CO,,39.79016182,-105.00856987,,Passive Open Space,0,images/Parks/no_imagerec.gif,No,2009-07-29 00:00:00,{00000000-0000-0000-0000-000000000000}
Capitol Hill Reservoir,Capitol Hill Reservoir,303,Park,Athletic Multiuse Complex,7.07466402,Not Eligible,Not Applicable,None,E,10,3,9th Av & Elizabeth St,,950 N Josephine St,,Denver,CO,,39.7320139,-104.95761398,,Soccer Field Complex,documents/parkart/ParkArt_Capitol Hill Reservoir.pdf,images/Parks/no_imagerec.gif,No,2009-10-07 00:00:00,{00000000-0000-0000-0000-000000000000}
La Alma / Lincoln,La Alma / Lincoln Park,315,Park,Neighborhood,15.04019497,Yes,1885,None,NW,9,6,11th Av & Mariposa St,"163,468",1325 W 11th Ave,,Denver,CO,,39.73526875,-105.00406227,PK,"Recreation Center, Playground, Amphitheater, Outdoor Pool, Basketball Court, Picnic Shelter, Picnic Tables, Benches, Football Field, Tennis Court, Baseball / Softball Field, Picnic Area",documents/parkart/ParkArt_La Alma _ Lincoln Park.pdf,images/Parks/lincolnpark.jpg,Yes,2009-01-21 00:00:00,{00000000-0000-0000-0000-000000000000}
Verbena,Verbena Park,L18,Park,Neighborhood,7.2445833,Yes,1969,None,NE,5,3,11th Av & Verbena St,"349,580",1151 N Verbena St,,Denver,CO,,39.73424545,-104.89126847,PK,"Picnic Shelter, Picnic Tables, Benches, Playground, Basketball Court, Baseball / Softball Field, Soccer Field, Bike/Pedestrian Path",documents/parkart/ParkArt_Verbena Park.pdf,images/Parks/verbenapark.jpg,Yes,2008-12-02 00:00:00,{00000000-0000-0000-0000-000000000000}
Montclair,Montclair Park,408,Park,Neighborhood,2.35621518,Yes,1908,None,E,5,3,12th Av & Oneida St,"174,685",6820 E 12th Ave,,Denver,CO,,39.73499473,-104.90877801,PK,"Historic Site,  Montclair Civic Building (The Mulkery), Benches, Picnic Tables, Playground, Horseshoe Pits, Tennis Court, Picnic Area",documents/parkart/ParkArt_Montclair Park.pdf,images/Parks/montclairpark.jpg,Yes,2008-12-02 00:00:00,{00000000-0000-0000-0000-000000000000}
Denison,Denison Park,458,Park,Neighborhood,2.40181524,Yes,1977,None,E,5,3,11th Av & Quebec St,"356,921",1105 N Quebec St,,Denver,CO,,39.73360398,-104.9040755,PK,"Benches, Picnic Tables, Playground, Basketball Court, Horseshoe Pits",documents/parkart/ParkArt_Denison Park.pdf,images/Parks/dennisonpark.jpg,Yes,2013-02-05 00:00:00,{00000000-0000-0000-0000-000000000000}
Westwood Utility,Westwood Utility Easement,812,Open Space,Open Space,3.44299408,Not Eligible,Not Applicable,None,SW,3,4,Kentucky Av & Perry St,,950 S Osceola St,,Denver,CO,,39.70011391,-105.0396619,,"Open Space, Natural Areas, Community Garden, Bike/Pedestrian Path",documents/parkart/ParkArt_Westwood Utility Easement.pdf,images/Parks/no_imagerec.gif,Yes,2009-06-08 00:00:00,{00000000-0000-0000-0000-000000000000}
Mayfair,Mayfair Park,432,Park,Neighborhood,4.89123455,Yes,1995,None,E,5,3,10th Av & Ivy St,"356,590",1000 N Ivy St,,Denver,CO,,39.73214564,-104.920564,PK,"Benches, Picnic Tables, Playground, Basketball Court, Bike/Pedestrian Path, Flower Beds, Natural Areas",documents/parkart/ParkArt_Mayfair Park.pdf,images/Parks/mayfairpark.jpg,Yes,2008-12-02 00:00:00,{00000000-0000-0000-0000-000000000000}
Highline Canal (GVR Golf),Highline Canal - GVR Golf Course,571,Trail,Trail,10.08637215,Not Eligible,,,NE,11,5,Highline Canal - GVR Golf Course,,,,Denver,CO,,39.78904301,-104.74740929,,"Bike/Pedestrian Path, High Line Canal Trail, Open Space, Natural Areas",,,Yes,2013-11-21 00:00:00,{00000000-0000-0000-0000-000000000000}
Highline Canal (49th Ave),Highline Canal - Orleans to Nepal,570,Trail,Trail,1.04079508,Not Eligible,,,NE,11,5,Highline Canal - Orleans to Nepal,,,,Denver,CO,,39.78386098,-104.7391918,,"Bike/Pedestrian Path, High Line Canal Trail, Open Space, Natural Areas",,,Yes,2013-11-21 00:00:00,{00000000-0000-0000-0000-000000000000}
Highline Canal (at Picadilly),Highline Canal - Picadilly to Orleans,569,Trail,Trail,2.75362044,Not Eligible,,,NE,11,5,Highline Canal - Picadilly to Orleans,,,,Denver,CO,,39.78363244,-104.7358746,,"Bike/Pedestrian Path, High Line Canal Trail, Open Space, Natural Areas",,,Yes,2013-11-21 00:00:00,{00000000-0000-0000-0000-000000000000}
Steel St Bikeway,Steele St Bikeway,326,Trail,Trail,0.6017405,Not Eligible,Not Applicable,N/A,Citywide,6,,Steele St - Virginia to Exposition,,,,Denver,CO,,39.70605015,-104.9500095,,Off-street Trail Connection,,,No,2013-11-21 00:00:00,{00000000-0000-0000-0000-000000000000}
Sunken Gardens,Sunken Gardens Park,318,Park,Neighborhood,11.12443689,Yes,1904,2002,NW,9,6,8th Av & Deleware St,,800 N Delaware St,,Denver,CO,,39.73143345,-104.99318366,PK,"Benches, Playground, Picnic Tables, Basketball Court, Multi-purpose Field (Lacrosse, Rugby, Soccer), Bike/Pedestrian Path, Picnic Area",documents/parkart/ParkArt_Sunken Gardens Park.pdf,images/Parks/sunkengardenspark.jpg,No,2009-01-21 00:00:00,{00000000-0000-0000-0000-000000000000}
Quality Hill,Quality Hill Park,342,Park,Pocket,0.28167168,Yes,1979,None,NW,10,6,10th Av & Pennsylvania St,"366,226",450 E 10th Ave,,Denver,CO,,39.73178373,-104.9813802,PK,"Benches, Picnic Tables, Plaza, Drinking Fountain",documents/parkart/ParkArt_Quality Hill Park.pdf,images/Parks/qualityhillpark.jpg,Yes,2009-01-21 00:00:00,{00000000-0000-0000-0000-000000000000}
Hicks Mountain,Hicks Mountain Tract,M28,Conservation Tract,Mountain,816.37531591,Yes,1926,2008,MP,None,None,,,,,,CO,,39.64605338,-105.43963705,,"Scenic View, Wildlife Habitat",0,images/Parks/no_imagerec.gif,,2010-05-24 00:00:00,{00000000-0000-0000-0000-000000000000}
Corwina,Corwina Park,M11,Park,Mountain,277.84714844,Yes,0,2008,MP,None,None,,,25280 Highway 74,,Evergreen,CO,80439,39.65998426,-105.28018995,MP,"Historic Shelter, Picnic Area, Tables, Grills, Restroom, Hiking Trails, Panorama Point Trail, Bear Creek Trail",documents/parkart/Corwina_ParkMap.pdf,images/Parks/Corwinapark.jpg,,2010-05-21 00:00:00,{00000000-0000-0000-0000-000000000000}
Bow Mar Heights,Bow Mar Heights Park,151,Park,Neighborhood,17.9570163,Yes,1974,None,SW,2,4,Newton St & Rutgers Pl,,4000 W Rutgers Pl,,Denver,CO,,39.63441862,-105.03819338,PK,"Benches, Picnic Tables, Natural Areas, Bike/Pedestrian Path",documents/parkart/ParkArt_Bow Mar Heights Park.pdf,images/Parks/bowmarheightspark.jpg,Yes,2008-11-07 00:00:00,{00000000-0000-0000-0000-000000000000}
Wallace,Wallace (George M) Park,612,Park,Community,24.82107756,Yes,1967,1983,E,4,3,Belleview Av & DTC Blvd,,4700 SDTC Blvd,,Denver,CO,,39.62947316,-104.89036826,PK,"Benches, Picnic Tables, Playground, Flower Beds, Bike/Pedestrian Path, Goldsmith Gulch Trail",documents/parkart/ParkArt_Wallace (George M) Park.pdf,images/Parks/wallacepark.jpg,Yes,2009-06-25 00:00:00,{00000000-0000-0000-0000-000000000000}
Wallace North,Wallace (George M) Park North,611,Park,Community,7.72982581,Yes,1967,1983,E,4,3,Temple Av & DTC Blvd,,4600 S DTC Blvd,,Denver,CO,,39.63355078,-104.89256012,,"Benches, Bike/Pedestrian Path, Goldsmith Gulch Trail",documents/parkart/ParkArt_Wallace (George M) Park North.pdf,images/Parks/wallacepark.jpg,Yes,2009-06-25 00:00:00,{00000000-0000-0000-0000-000000000000}
Weir Gulch Marina,Weir Gulch Marina Park,917,Park,Neighborhood,6.67490491,No,1972,2010,NW,9,1,9th Av & Platte River,"70,524",2620 W 9th Ave,,Denver,CO,,39.73092807,-105.01911751,PK,"Benches, Picnic Tables, Basketball Court, Bike/Pedestrian Path, Connection to South Platte River Trail",documents/parkart/ParkArt_Weir Gulch Marina Park.pdf,images/Parks/weirgulchmarinapark.jpg,No,2014-12-26 00:00:00,{00000000-0000-0000-0000-000000000000}
Kittredge,Kittredge Park,461,Park,Neighborhood,2.21568906,Yes,1975,None,E,5,3,8th Av & Oneida St,"128,189",851 N Olive St,,Denver,CO,,39.72989403,-104.90750414,PK,"Benches, Picnic Tables, Playground, Softball Field, Bike/Pedestrian Path, Drinking Fountain",documents/parkart/ParkArt_Kittredge Park.pdf,images/Parks/kittredgepark.jpg,Yes,2008-12-02 00:00:00,{00000000-0000-0000-0000-000000000000}
Southwest Auto,Southwest Auto Park,180,Park,Pocket,1.5422345,Yes - 2013 January,1988,None,SW,2,4,Union Av & Balsam Way,"156,198",8301 W Union Ave,,Denver,CO,,39.63164095,-105.09141262,PK,"Bike/Pedestrian Path, Tennis Court, Drinking Fountain, Benches",documents/parkart/ParkArt_Southwest Auto Park.pdf,images/Parks/southwestautopark.jpg,Yes,2009-08-31 00:00:00,{00000000-0000-0000-0000-000000000000}
Barnum North,Barnum North Park,23,Park,Athletic Multiuse Complex,17.21072364,Yes,1951,None,NW,3,1,6th Av & Federal Blvd,"375,603",3144 W 6th Ave,,Denver,CO,,39.72679019,-105.02719235,PK,"Soccer Field, Baseball / Softball Field Complex, Natural Areas, Bleachers, Bike Skills Course",documents/parkart/ParkArt_Barnum North Park.pdf,images/Parks/barnumpark1.jpg,No,2009-02-09 00:00:00,{00000000-0000-0000-0000-000000000000}
Grant-Humphrey's,Grant-Humphrey's Mansion Park,338,Park,Special Use,1.88431131,Yes,1977,None,NW,10,6,8th Av & Pearl St,"356,998",750 N Pennsylvania St,,Denver,CO,,39.72821501,-104.98062272,PK,"Historical Site, Grant-Humphrey's Mansion",documents/parkart/ParkArt_Grant-Humphrey's Mansion Park.pdf,images/Parks/granthumphreyspark.jpg,Yes,2009-01-22 00:00:00,{00000000-0000-0000-0000-000000000000}
Governors,Governors Park,316,Park,Neighborhood,1.97674889,Yes,1966,None,NW,10,6,7th Av & Logan St,"68,458",701 N Pennsylvania St,,Denver,CO,,39.72788859,-104.98162257,PK,"Benches, Drinking Fountain, Picnic Tables, Playground, Public Art, Bike/Pedestrian Path",documents/parkart/ParkArt_Governors Park.pdf,images/Parks/govenorspark.jpg,Yes,2009-01-21 00:00:00,{00000000-0000-0000-0000-000000000000}
Barnum,Barnum Park,804,Park,Community,34.01516402,Yes,1906,2008,SW,3,4,4th Av & Hooker St,"75,922",360 N Hooker St,,Denver,CO,,39.72359373,-105.02812628,PK,"Recreation Center, Outdoor Pool, Restroom, Dog Park, Playground, Basketball Court, Tennis Court, Lake, Picnic Tables, Picnic Shelter, Benches, Bike/Pedestrian Path, Picnic Area",documents/parkart/ParkArt_Barnum Park.pdf,images/Parks/barnumpark2.jpg,Yes,2008-11-20 00:00:00,{00000000-0000-0000-0000-000000000000}
Creekfront,Creekfront Park,349,Park,Pocket,1.01791006,No,Not Applicable,None,NW,8,6,Larimer St & Speer Blvd,"356,897",1300 Larimer St,,Denver,CO,,39.74641304,-105.00011277,PK,"Bike/Pedestrian Path, Cherry Creek Trail, Fountain, Benches",documents/parkart/ParkArt_Creekfront Park.pdf,images/Parks/no_imagerec.gif,No,2009-10-07 00:00:00,{00000000-0000-0000-0000-000000000000}
Swansea Neighborhood,Swansea Neighborhood Park,941,Park,Neighborhood,3.33640537,Yes - 2014 May,2001,2004,NW,9,2,51St Av & Steele St,"23,682",3200 E 52nd Ave,,Denver,CO,,39.79048574,-104.94922757,PK,"Picnic Tables, Playground, Drinking Fountain, Benches, Bike/Pedestrian Path",documents/parkart/ParkArt_Swansea Neighborhood Park.pdf,images/Parks/swanseaneighborhoodpark.jpg,Yes,2009-03-24 00:00:00,{00000000-0000-0000-0000-000000000000}
Kennedy Golf Course,Kennedy (John F) Municipal Golf Course,GK1,Golf,Golf,277.30494097,Partial,1964,None,E,4,3,Hampden Av & Havana St,"148,122",10500 E Hampden Ave,,Denver,CO,,39.65128378,-104.86673307,,Unlisted,documents/parkart/KennedyGolfCourse.pdf,,No,2009-06-25 00:00:00,{00000000-0000-0000-0000-000000000000}
Pence,Pence Park,M42,Park,Mountain,304.11807991,Yes,1924,2008,MP,None,None,,,4400 Parmalee Gulch Road,,Evergreen,CO,80439,39.63406415,-105.28492457,MP,"Bear Creek Trail, Parking, Restroom, Picnic Tables, Grill",documents/parkart/Pence_ParkMap.pdf,images/Parks/pencemtnpark.jpg,,2010-05-21 00:00:00,{00000000-0000-0000-0000-000000000000}
Heron Pond,Heron Pond/Heller Open Space,925,Open Space,Open Space,42.88065842,No,1998,2004,NW,9,2,53rd Av & Marion St,"356,561",1401 E 53rd Ave,,Denver,CO,,39.79408858,-104.9742722,PK,"Lake, Open Space, Natural Areas",documents/parkart/ParkArt_Heron Pond - Heller Open Space.pdf,images/Parks/no_imagerec.gif,No,2009-04-28 00:00:00,{00000000-0000-0000-0000-000000000000}
Parmalee Gulch,Parmalee Gulch Tract,M41,Conservation Tract,Mountain,2.76454367,Yes,0,2008,MP,None,None,,,,,,CO,,39.6300844,-105.25629596,,Natural Open Space,0,images/Parks/no_imagerec.gif,,2010-05-21 00:00:00,{00000000-0000-0000-0000-000000000000}
Little Park,Little Park,M31,Park,Mountain,412.93622557,Yes,1924,2008,MP,None,None,,,21700 State Highway 74,,Idledale,CO,80453,39.65649051,-105.2477115,MP,"Historic Stone Wellhouse, Picnic Area, Tables, Grills, Restroom, Volleyball Court, Horseshoe Pits, Bear Creek Trail",documents/parkart/Little_ParkMap.pdf,images/Parks/littlepark.jpg,,2010-05-14 00:00:00,{00000000-0000-0000-0000-000000000000}
Turkey Creek,Turkey Creek Park,M52,Park,Mountain,57.2968497,Yes,1924,2008,MP,None,None,,,6900 South Turkey Creek Road,,Morrison,CO,80465,39.59317785,-105.22551698,MP,"Picnic Area, Tables, Grills, Restroom",,images/Parks/turkeycreekpark.jpg,,2010-05-14 00:00:00,{00000000-0000-0000-0000-000000000000}
Fenders,Fenders Tract,M22,Conservation Tract,Mountain,40.45927402,Yes,1924,2008,MP,None,None,,,,,,CO,,39.57150333,-105.20566601,,"Scenic View, Natural Open Space",0,images/Parks/no_imagerec.gif,,2010-05-14 00:00:00,{00000000-0000-0000-0000-000000000000}
Berrian Mountain,Berrian Mountain Tract,M06,Conservation Tract,Mountain,481.4198926,Yes,1926,2008,MP,None,None,,,,,,CO,,39.55959606,-105.29591585,,"Scenic View, Wildlife Habitat, Natural Open Space",0,images/Parks/no_imagerec.gif,,2010-05-14 00:00:00,{00000000-0000-0000-0000-000000000000}
West Jefferson School,West Jefferson School Tract,M53,Conservation Tract,Mountain,79.59565667,Yes,1926,2008,MP,None,None,,,,,,CO,,39.54674296,-105.31139303,,Natural Open Space,0,images/Parks/no_imagerec.gif,,2010-05-14 00:00:00,{00000000-0000-0000-0000-000000000000}
Double Header Mountain,Double Header Mountain Tract,M17,Conservation Tract,Mountain,42.62075446,Yes,1924,2008,MP,None,None,,,,,,CO,,39.54945412,-105.27088494,,"Scenic View, Natural Open Space",0,images/Parks/no_imagerec.gif,,2010-05-14 00:00:00,{00000000-0000-0000-0000-000000000000}
Yeagge Peak,Yeagge Peak Tract,M55,Conservation Tract,Mountain,41.12075376,Yes,1924,2008,MP,None,None,,,,,,CO,,39.54202903,-105.2208257,,"Scenic View, Natural Open Space",0,images/Parks/no_imagerec.gif,,2010-05-14 00:00:00,{00000000-0000-0000-0000-000000000000}
North Turkey Creek,North Turkey Creek Tract,M39,Conservation Tract,Mountain,39.83108361,Yes,1924,2008,MP,None,None,,,,,,CO,,39.58238399,-105.28012354,,"Scenic View, Natural Open Space",0,images/Parks/turkeycreekmtnpark.jpg,,2010-05-21 00:00:00,{00000000-0000-0000-0000-000000000000}
Hampden Heights,Hampden Heights Park,614,Park,Community,32.49345113,Yes - 2014 May,1971,None,E,4,3,Cornell Av & Dayton St,"147,281",3301 S Clinton St,,Denver,CO,,39.65795128,-104.87747602,PK,"Benches, Picnic Tables, Playground, Basketball Court, Bike/Pedestrian Path, Soccer Field, Baseball / Softball Field, Drinking Fountain, Picnic Area",documents/parkart/ParkArt_Hampden Heights Park.pdf,images/Parks/hampdenheightspark.jpg,Yes,2009-06-12 00:00:00,{00000000-0000-0000-0000-000000000000}
Rosedale,Rosedale Park,826,Park,Neighborhood,12.75293564,Yes,1921,None,SW,7,4,Iliff Av & Logan St,"115,356",300 E Iliff Ave,,Denver,CO,,39.67281415,-104.98389765,PK,"Benches, Community Garden, Natural Areas, Bike/Pedestrian Path, Picnic Tables",documents/parkart/ParkArt_Rosedale Park.pdf,images/Parks/rosedalepark.jpg,Yes,2008-12-23 00:00:00,{00000000-0000-0000-0000-000000000000}
Magna Carta,Magna Carta Park,631,Park,Neighborhood,3.59090681,Partial,1960,None,E,4,3,Hampden Av & Colorado Blvd,"356,589",3400 S Colorado Blvd,,Denver,CO,,39.65407127,-104.939948,PK,"Picnic Tables, Playground, Soccer Field, Benches, Bike/Pedestrian Path, Picnic Area",documents/parkart/ParkArt_Magna Carta Park.pdf,images/Parks/magnacartapark.jpg,Yes,2009-06-12 00:00:00,{00000000-0000-0000-0000-000000000000}
City Park Municipal Golf Course,City Park Municipal Golf Course,GC1,Golf,Golf,138.8266545,Yes,,None,E,8,2,23rd Av & York St,"58,322",2500 N York St,,Denver,CO,,39.75279658,-104.95036587,,Unlisted,documents/parkart/CityParkGolfCourse.pdf,images/Parks/no_imagerec.gif,Yes,2014-01-01 00:00:00,{00000000-0000-0000-0000-000000000000}
Harvey,Harvey Park,130,Park,Community,24.54599471,Yes,1954,None,SW,2,4,Evans Av & Tennyson St,"118,257",2120 S Tennyson Way,,Denver,CO,,39.67872006,-105.04096364,PK,"Recreation Center, Drinking Fountain, Picnic Tables, Playground, Flower Beds, Lake, Outdoor Pool, Restroom, Bike/Pedestrian Path, Football Field, Soccer Field, Horseshoe Pits, Picnic Area",documents/parkart/ParkArt_Harvey Park.pdf,images/Parks/harveypark.jpg,No,2008-11-25 00:00:00,{00000000-0000-0000-0000-000000000000}
DeBoer,DeBoer (SR) Park,805,Park,Neighborhood,4.74970471,Partial,1956,None,SW,7,3,Harvard Av & Vine St,"113,549",2505 S York St,,Denver,CO,,39.67090375,-104.96207924,PK,"Drinking Fountain, Picnic Tables, Basketball Court, Playground, Bike/pedestrian Path, Harvard Gulch Trail",documents/parkart/ParkArt_DeBoer (SR) Park.pdf,images/Parks/deboerpark.jpg,Yes,2008-12-23 00:00:00,{00000000-0000-0000-0000-000000000000}
City of Kunming,City of Kunming Park,833,Park,Neighborhood,3.62653177,Yes,1908,None,SW,7,4,Sherman St & Harvard Av,"356,801",200 E Harvard Ave,,Denver,CO,,39.67037173,-104.98462429,PK,"Benches, Plaza, Drinking Fountain, Flower Beds",documents/parkart/ParkArt_City of Kunming Park.pdf,images/Parks/citykunmingpark.jpg,Yes,2008-12-23 00:00:00,{00000000-0000-0000-0000-000000000000}
Harvard Gulch East,Harvard Gulch East,810,Park,Neighborhood,10.7051183,No,1970,2010,SW,7,3,Harvard Gulch - Downing St To Harrison St,"357,060",3301 E Vassar Ave,,Denver,CO,,39.66953964,-104.96025466,PK,"Bike/Pedestrian Path, Harvard Gulch Trail, Open Space, Natural Areas, Picnic Tables, Benches",documents/parkart/ParkArt_Harvard Gulch East Park.pdf,images/Parks/harvardgulcheastpark.jpg,No,,{00000000-0000-0000-0000-000000000000}
McWilliams,McWilliams (Robert H) Park,814,Park,Neighborhood,7.85741207,Yes,1958,None,SW,6,3,St Paul St & Yale Av,"366,241",2701 E Yale Ave,,Denver,CO,,39.6680793,-104.95135841,PK,"Drinking Fountain, Picnic Tables, Playground, Restroom, Basketball Court, Bike/Pedestrian Path, Harvard Gulch Trail, Baseball / Softball Field, Soccer Field, Picnic Area",documents/parkart/ParkArt_McWilliams (Robert H) Park.pdf,images/Parks/mcwilliamspark.jpg,Yes,2009-12-11 00:00:00,{00000000-0000-0000-0000-000000000000}
Central Park,Central Park,561,Park,Regional,78.89186211,Yes - 2013 January,2008,2002,NE,11,2,Martin Luther King Jr Blvd & Central Park Blvd,"186,960",8801 E Martin Luther King Jr Blvd,,Denver,CO,,39.7615607,-104.88396513,PK,"Lake, Benches, Picnic Shelter, Restroom, Drinking Fountain, Playground, Soccer Field, Bike/Pedestrian Path, Natural Areas, Interactive Fountain, Picnic Area, Bocce Ball Court",documents/parkart/ParkArt_Central Park.pdf,images/Parks/centralpark.jpg,No,2009-02-27 00:00:00,{00000000-0000-0000-0000-000000000000}
Bates & Hobart,Unnamed Bates & Hobart Park,142,Park,Neighborhood,6.36715637,Yes,1963,None,SW,2,4,Bates Av & Hobart Way,"366,281",6000 W Bates Ave,,Denver,CO,,39.66160916,-105.06064009,PK,"Benches, Picnic Tables, Playground, Soccer Field, Bike/Pedestrian Path, Horseshoe Pits",documents/parkart/ParkArt_Unnamed Bates & Hobart Park.pdf,images/Parks/bateshobartpark.jpg,Yes,2008-11-07 00:00:00,{00000000-0000-0000-0000-000000000000}
St Patrick's,St. Patrick's Neighborhood Park,43,Park,Pocket,0.28383866,Partial,1981,None,NW,9,1,33rd Av & Pecos St,"44,073",3312 N Pecos St,,Denver,CO,,39.7634593,-105.00612202,PK,"Drinking Fountain, Picnic Tables, Benches, Playground, Plaza",documents/parkart/ParkArt_St. Patrick's Neighborhood Park.pdf,images/Parks/stpatrickspark.jpg,Yes,2009-03-11 00:00:00,{00000000-0000-0000-0000-000000000000}
Dartmouth Gulch,Dartmouth Gulch Park,178,Open Space,Open Space,3.3473462,Yes - 2013 January,0,None,SW,7,4,Bryant St & Dartmouth Av,"356,904",2601 W Dartmouth Ave,,Denver,CO,,39.6612,-105.01965553,,"Open Space, Natural Areas",documents/parkart/ParkArt_Dartmouth Gulch Park.pdf,images/Parks/no_imagerec.gif,Yes,2009-06-25 00:00:00,{00000000-0000-0000-0000-000000000000}
Hampden Heights West,Hampden Heights West Park,615,Open Space,Open Space,4.28975974,No,1973,None,E,4,3,Eastman Av & Xanthia Ct,"356,983",8674 E Eastman Ave,,Denver,CO,,39.65722808,-104.88701864,,"Bike/Pedestrian Path, Open Space, Natural Areas",documents/parkart/ParkArt_Hampden Heights West Park.pdf,images/Parks/hampdenheightspark.jpg,Yes,2009-06-12 00:00:00,{00000000-0000-0000-0000-000000000000}
Bear Creek,Bear Creek Park,139,Park,Regional,86.40724166,Partial - 2014 January,1956,None,SW,2,4,Hampden Av & Sheridan Blvd,,3550 S Raleigh St,,Denver,CO,,39.65156416,-105.04617815,PK,"Benches, Drinking Fountain, Picnic Shelter, Picnic Tables, Playground, Restroom, Bike/Pedestrian Path, Bear Creek Trail, Horseshoe Pits, Soccer Field, Baseball / Softball Field, Natural Areas, Picnic Area",documents/parkart/ParkArt_Bear Creek Park.pdf,images/Parks/bearcreekpark.jpg,No,2009-12-01 00:00:00,{00000000-0000-0000-0000-000000000000}
Southmoor,Southmoor Park,622,Park,Community,17.32484594,Yes,1966,None,E,4,3,Oneida Way & Peach Way,"357,868",3551 S Poplar St,,Denver,CO,,39.65146329,-104.90694239,PK,"Benches, Drinking Fountain, Picnic Shelter, Picnic Tables, Playground, Basketball Court, Bike/Pedestrian Path, Soccer Field, Baseball / Softball Field",documents/parkart/ParkArt_Southmoor Park.pdf,images/Parks/southmoorpark.jpg,Yes,2009-01-09 00:00:00,{00000000-0000-0000-0000-000000000000}
Jefferson & Kendall,Unnamed Jefferson & Kendall Park,156,Park,Neighborhood,2.42291677,Yes,1976,None,SW,2,4,Jefferson Av & Kendall Blvd,"176,719",3599 S Kendall St,,Denver,CO,,39.65047935,-105.06710545,PK,"Picnic Tables, Playground, Baseball / Softball Field, Bike/Pedestrian Path",documents/parkart/ParkArt_Unnamed Jefferson & Kendall Park.pdf,images/Parks/jeffersonkendallpark.jpg,Yes,2008-11-20 00:00:00,{00000000-0000-0000-0000-000000000000}
Goldsmith Gulch (North),Goldsmith Gulch North,609,Open Space,Open Space,5.40496952,Not Eligible,1965,None,E,4,3,Goldsmith Gulch - Hampden Av to Mansfield Av,,3801 S Tamarac Dr,,Denver,CO,,39.64618971,-104.89614007,,"Bike/Pedestrian Path, Open Space, Natural Areas",documents/parkart/ParkArt_Goldsmith Gulch North.pdf,images/Parks/no_imagerec.gif,Yes,2009-07-17 00:00:00,{00000000-0000-0000-0000-000000000000}
Rosamond,Rosamond Park,621,Park,Community,35.64359505,Yes,1963,None,E,4,3,Tamarac Dr & Quincy St,"173,139",8051 E Quincy Ave,,Denver,CO,,39.64062662,-104.89512424,PK,"Benches, Drinking Fountain, Playground, Basketball Court, Bike/Pedestrian Path, Football Field, Soccer Field, Baseball / Softball Field, Tennis Court, Flower Beds, Picnic Tables, Picnic Shelter, Parking Lot, Picnic Area",documents/parkart/ParkArt_Rosamond Park.pdf,images/Parks/rosamondpark.jpg,Yes,2009-01-09 00:00:00,{00000000-0000-0000-0000-000000000000}
Martin Luther King,Martin Luther King Park,415,Park,Neighborhood,11.31447283,Yes,1968,None,NE,11,2,39th Av & Newport St,"11,257",3880 N Newport St,,Denver,CO,,39.7701928,-104.90820402,PK,"Recreation Center, Playground, Basketball Court, Bike/Pedestrian Path, Football Field, Soccer Field, Baseball / Softball Field, Tennis Court, Picnic Tables, Benches, Picnic Area",documents/parkart/ParkArt_Martin Luther King Jr Park.pdf,images/Parks/mlkpark.jpg,Yes,2008-11-25 00:00:00,{00000000-0000-0000-0000-000000000000}
Four Mile,Four Mile Historic Park,756,Park,Special Use,10.88573892,Yes,1975,None,E,6,3,Exposition Av & Forest St,,715 S Forest St,,Denver,CO,,39.70310512,-104.92731008,PK,"Historic Site, Museum, Special Events, Educational Activities, Paid Admission Required",documents/parkart/ParkArt_Four Mile Historic Park.pdf,images/Parks/fourmilepark.jpg,Yes,2008-12-12 00:00:00,{00000000-0000-0000-0000-000000000000}
Boyd,Boyd (J. Langston) Park,255,Park,Neighborhood,4.88831733,Yes,0,None,NW,8,2,MLK Jr Blvd & Colorado Blvd,"356,681",3101 N Colorado Blvd,,Denver,CO,,39.76034145,-104.9412165,PK,"Benches, Bike/Pedestrian Path, Flower Bed",documents/parkart/ParkArt_Boyd (J. Langston) Park.pdf,images/Parks/northeastcommunitypark.jpg,No,2009-02-04 00:00:00,{00000000-0000-0000-0000-000000000000}
Bryant & Ellsworth,Unnamed Bryant & Ellsworth Park,815,Park,Pocket,0.52562428,Yes,1946,None,SW,9,4,Bryant St & Ellsworth Av,"366,340",25 S Bryant St,,Denver,CO,,39.71616942,-105.01871851,PK,Basketball Court,documents/parkart/ParkArt_Unnamed Bryant & Ellsworth Park.pdf,images/Parks/bryantellsworthpark.jpg,Yes,2009-07-17 00:00:00,{00000000-0000-0000-0000-000000000000}
Valverde,Valverde Park,834,Park,Neighborhood,5.79793115,Yes,1938,None,SW,7,4,Cedar Av & Navajo St,,150 S Navajo St,,Denver,CO,,39.71376721,-105.00282014,PK,"Baseball / Softball Field Complex, Basketball Court, Football Field,  Bike/Pedestrian Path, Picnic Shelter",documents/parkart/ParkArt_Valverde Park.pdf,images/Parks/valverdepark.jpg,No,2009-07-17 00:00:00,{00000000-0000-0000-0000-000000000000}
Thomas,Thomas (Fred N) Park,L16,Park,Community,29.43045419,Yes,1969,None,NE,11,2,26th Av & Quebec St,"173,644",2400 N Quebec St,,Denver,CO,,39.75265535,-104.90146324,PK,"Pavilion, Benches, Picnic Tables, Picnic Shelter, Playground, Restroom, Drinking Fountain, Basketball Court, Football Field, Soccer Field, Baseball / Softball Field, Tennis Court, Sand Volleyball Court, Bike/Pedestrian Path, Picnic Area",documents/parkart/ParkArt_Thomas (Fred N) Park.pdf,images/Parks/fredthomaspark.jpg,No,2009-02-26 00:00:00,{00000000-0000-0000-0000-000000000000}
Red Rocks,Red Rocks Park,M44,Park,Mountain,637.38976558,Yes,,2008,MP,None,None,,,16351 County Road 93,,Morrison,CO,80465,39.66586554,-105.20555856,MP,"Historic Amphitheatre, Trading Post (Welcome Center), Visitor Center, Exhibits, Restaurant, Geologic Overlook, Picnic Area, Picnic Shelter, Restroom, Trading Post Trail, Trail connections to adjacent Open Space Parks",documents/parkart/RedRocks_ParkMap.pdf,images/Parks/redrockspark.jpg,,2010-06-25 00:00:00,{00000000-0000-0000-0000-000000000000}
Kentucky & Knox,Unnamed Kentucky & Knox Park,817,Park,Pocket,0.38331134,Yes,1976,None,SW,3,4,Kentucky Av & Knox Ct,,3451 W Kentucky Ave,,Denver,CO,,39.70065224,-105.03269389,PK,"Playground, Picnic Shelter, Picnic Tables",documents/parkart/ParkArt_Unnamed Kentucky & Knox Park.pdf,images/Parks/kentuckyandknoxpark.jpg,No,2008-11-25 00:00:00,{00000000-0000-0000-0000-000000000000}
Berkeley Lake,Berkeley Lake Park,2,Park,Regional,81.22042774,Yes,1906,2004,NW,1,1,46th Av & Sheridan Blvd,"162,166",4601 W 46th Ave,,Denver,CO,,39.78227342,-105.04860942,PK,"Dog Park, Lake, Flower Beds, Drinking Fountain, Picnic Shelter, Picnic Tables, Playground, Recreation Center, Outdoor Pool, Basketball Court, Tennis Court, Bike/Pedestrian Path, Soccer Field, Baseball / Softball Field, Restroom, Benches, Picnic Area",documents/parkart/ParkArt_Berkeley Lake Park.pdf,images/Parks/berkeleypark.jpg,No,2009-08-11 00:00:00,{00000000-0000-0000-0000-000000000000}
Camp Rollendet,Camp Rollendet,49,Open Space,Special Use,7.03227875,Yes - 2013 January,2005,None,NW,1,1,52nd Av & Sheidan Blvd,"58,923",5161 N Sheridan Blvd,,Denver,CO,,39.7899896,-105.05427416,,"Open Space, Natural Areas, Special Use Activities",documents/parkart/ParkArt_Camp Rollendet.pdf,images/Parks/no_imagerec.gif,No,2008-11-07 00:00:00,{00000000-0000-0000-0000-000000000000}
42nd & Lisbon,Unnamed 42nd & Lisbon Park,522,Park,Neighborhood,18.00337525,Yes - 2013 April,0,None,NE,11,5,42nd Av & Lisbon St,"177,070",4000 N Kirk St,,Denver,CO,,39.77286902,-104.74613507,PK,"Benches, Picnic Tables, Picnic Shelter, Playground, Restroom, Drinking Fountain, Basketball Court, Tennis Court, Bike/Pedestrian Path, Baseball / Softball Field, Disc Golf Course, Picnic Area",documents/parkart/ParkArt_Unnamed 42nd & Lisbon Park.pdf,images/Parks/42ndlisbonpark.jpg,Yes,2009-05-06 00:00:00,{00000000-0000-0000-0000-000000000000}
Milstein,Milstein (Phil) Park,911,Park,Neighborhood,5.48319398,Not Eligible,Not Applicable,None,NW,9,4,6th Av & Platte River,,,,Denver,CO,,39.72296856,-105.01292111,PK,"Picnic Tables, Bike/Pedestrian Path, South Platte River Trail",documents/parkart/ParkArt_Milstein (Phil) Park.pdf,images/Parks/milsteinpark.jpg,No,2009-10-07 00:00:00,{00000000-0000-0000-0000-000000000000}
Speer Blvd Park,Speer Blvd Park,354,Park,Neighborhood,3.53214994,No,1996,None,NW,9,6,Speer Blvd & Wewatta St,,1900 N Speer Blvd,,Denver,CO,,39.75105578,-105.00537637,,Passive Open Space,documents/parkart/ParkArt_Speer Blvd Park.pdf,images/Parks/no_imagerec.gif,No,2009-10-07 00:00:00,{00000000-0000-0000-0000-000000000000}
Broadway Triangles,Broadway Triangles,385,Park,Pocket,0.3726079,Yes,,None,NW,9,6,Broadway - Stout to Larimer,,,,Denver,CO,,39.75601266,-104.98717752,,"Benches, Public Art",0,images/Parks/no_imagerec.gif,No,,{00000000-0000-0000-0000-000000000000}
Highline Canal (Colorado to Parker),Highline Canal (Colorado to Parker),626,Trail,Trail,61.82831315,Not Eligible,Not Applicable,None,E,4,3,Highline Canal South Denver Section,,,,Denver,CO,,39.66375223,-104.90568487,,"Bike/Pedestrian Path, High Line Canal Trail, Open Space, Natural Areas",documents/parkart/ParkArt_Highline Canal.pdf,images/Parks/no_imagerec.gif,Yes,2009-06-08 00:00:00,{00000000-0000-0000-0000-000000000000}
Highline Canal (Parker to Havana),Highline Canal (Parker to Havana),661,Trail,Trail,28.79225445,Not Eligible,Not Applicable,None,NE,5,3,,,,,Denver,CO,,39.70355566,-104.89714612,,"Bike/Pedestrian Path, High Line Canal Trail, Open Space, Natural Areas",documents/parkart/ParkArt_Highline Canal.pdf,images/Parks/no_imagerec.gif,Yes,2009-06-08 00:00:00,{00000000-0000-0000-0000-000000000000}
Great Lawn Park,Great Lawn Park,L07,Park,Community,43.45280037,No,2010,None,NE,5,3,Lowry Blvd & Yosemite St,"270,832",101 N Yosemite St,,Denver,CO,,39.72399595,-104.88785016,PK,"Benches, Picnic Tables, Picnic Shelter, Restroom, Drinking Fountain, Playground, Lake, Bike/Pedestrian Path, Overlook Plaza, Natural Areas, Picnic Area",documents/parkart/ParkArt_Great Lawn Park.pdf,images/Parks/no_imagerec.gif,No,2010-10-06 00:00:00,{00000000-0000-0000-0000-000000000000}
Gates Crescent,Gates Crescent Park,907,Park,Neighborhood,10.82408343,Yes - 2013 January,1976,1997,NW,1,1,Children's Museum Dr & 7th St,,2100 Childrens Museum Dr,,Denver,CO,,39.74732334,-105.01669094,PK,"Picnic Tables, Bike/Pedestrian Path, South Platte River Trail, Sand Volleyball Court, Natural Areas, Playground, Drinking Fountain",documents/parkart/ParkArt_Gates Crescent Park.pdf,images/Parks/gatescrescentpark.jpg,Yes,2009-03-11 00:00:00,{00000000-0000-0000-0000-000000000000}
City of Cuernavaca,City of Cuernavaca Park,904,Park,Community,24.77051543,Partial,1993,1998,NW,9,1/6,Rockmont Dr & 19th Av,"43,551",3500 Rockmont Dr,,Denver,CO,,39.76220667,-105.00058605,PK,"Drinking Fountain, Picnic Tables, Picnic Shelter, Public Art, Baseball / Softball Field, Natural Areas, Bike/Pedestrian Path, South Platte River Trail, Picnic Area",documents/parkart/ParkArt_City of Cuernavaca Park.pdf,images/Parks/cuernavacapark.jpg,No,2009-05-06 00:00:00,{00000000-0000-0000-0000-000000000000}
Marrama,Marrama Park,519,Park,Pocket,1.47635754,Yes - 2013 April,,None,NE,11,5,43rd Av & Ceylon Ct,"5,775",19300 E 43rd Ave,,Denver,CO,,39.77303343,-104.76321646,PK,"Picnic Tables, Adjacent to the Highline Canal Trail",documents/parkart/ParkArt_Marrama Park.pdf,images/Parks/marramapark.jpg,Yes,2009-05-06 00:00:00,{00000000-0000-0000-0000-000000000000}
Green Valley Ranch West,Green Valley Ranch West Park,549,Park,Neighborhood,3.50304335,Yes - 2013 April,1984,None,NE,11,5,45th Av & Argonne St,"356,999",4500 N Argonne St,,Denver,CO,,39.77859946,-104.76815762,PK,"Picnic Tables, Grills, Playground, Basketball Court, Football Field, Baseball / Softball Field, Picnic Area",documents/parkart/ParkArt_Green Valley Ranch West Park.pdf,images/Parks/greenvalleyranchwestpark.jpg,Yes,2009-05-06 00:00:00,{00000000-0000-0000-0000-000000000000}
Downtown Playground,Downtown Playground,942,Park,Pocket,0.81564863,No,1996,None,NW,9,6,Speer Blvd & Wewatta St,"356,942",1800 N Speer Blvd,,Denver,CO,,39.75008749,-105.00410282,PK,"Playground, Benches, Picnic Shelter, Picnic Tables, Located just off of the Cherry Creek Trail",documents/parkart/ParkArt_Downtown Playground.pdf,images/Parks/downtownplaygroundpark.jpg,No,2009-10-07 00:00:00,{00000000-0000-0000-0000-000000000000}
First Creek,First Creek Open Space,521,Open Space,Open Space,37.09199648,Yes - 2013 April,0,None,NE,11,5,42nd Av & Piccadilly Rd,"7,456",4055 N Picadilly Rd,,Denver,CO,,39.7715202,-104.73544225,,"Bike/Pedestrian Path, First Creek Trail, Open Space, Natural Areas",documents/parkart/ParkArt_First Creek Open Space.pdf,images/Parks/no_imagerec.gif,Yes,2009-05-19 00:00:00,{00000000-0000-0000-0000-000000000000}
Park Ave Parks,Park Ave Parks,317,Park,Neighborhood,2.72472262,Yes,1894,None,E,8,6,Park Av - Colfax Av To 20th Av,"57,572",1695 N Marion St,,Denver,CO,,39.74270495,-104.97251499,,"Passive Open Space, Benches, Picnic Tables",documents/parkart/ParkArt_Park Ave Parks.pdf,images/Parks/no_imagerec.gif,Yes,2009-08-19 00:00:00,{00000000-0000-0000-0000-000000000000}
Tennessee,Tennessee Utility Easement,853,Open Space,Open Space,4.23007568,Not Eligible,Not Applicable,None,SW,3,4,Tennessee Av - Hazel To Zuni,,2601 W Tennessee Ave,,Denver,CO,,39.69872493,-105.02627601,,Open Space,documents/parkart/ParkArt_Tennessee Utility Easement.pdf,images/Parks/no_imagerec.gif,Yes,2009-12-11 00:00:00,{00000000-0000-0000-0000-000000000000}
Wellshire Golf Course,Wellshire Municipal Golf Course,GW1,Golf,Golf,133.91137871,Yes,,None,SW,4,3,Hampden Av & Colorado Blvd,"124,738",3333 S Colorado Blvd,,Denver,CO,,39.65663942,-104.94429486,,Unlisted,documents/parkart/WellshireGolfCourse.pdf,,Yes,2014-01-01 00:00:00,{00000000-0000-0000-0000-000000000000}
Highland,Highland Park,13,Park,Neighborhood,7.01124644,Yes,1899,2006,NW,1,1,32nd Av & Federal Blvd,"46,116",3265 N Federal Blvd,,Denver,CO,,39.76292368,-105.02653911,PK,"Picnic Tables, Playground, Basketball Court, Benches, Library, Bike/Pedestrian Path",documents/parkart/ParkArt_Highland Park.pdf,images/Parks/highlandpark.jpg,Yes,2008-11-20 00:00:00,{00000000-0000-0000-0000-000000000000}
Garland North Greenbelt,Garland North Greenbelt,648,Open Space,Open Space,5.41422697,Not Eligible,1972,None,E,6,3,Kearny St & Kentucky Av,"135,960",701 S Kearney St,,Denver,CO,,39.70223948,-104.91789049,,"Bike/Pedestrian Path, Open Space, Natural Areas",documents/parkart/ParkArt_Garland North Greenbelt.pdf,images/Parks/no_imagerec.gif,Yes,2009-08-14 00:00:00,{00000000-0000-0000-0000-000000000000}
Westwood,Westwood Park,839,Park,Neighborhood,5.00597737,Yes,1961,None,SW,3,4,Kentucky Av & Wolff St,,4951 W Kentucky Ave,,Denver,CO,,39.7014293,-105.04996907,PK,"Picnic Tables, Benches, Playground, Basketball Court, Baseball / Softball Field, Bike/Pedestrian Path, Picnic Area",documents/parkart/ParkArt_Westwood Park.pdf,images/Parks/westwoodpark.jpg,Yes,2009-02-09 00:00:00,{00000000-0000-0000-0000-000000000000}
Asbury & Tejon,Unnamed Asbury & Tejon Park,830,Park,Neighborhood,5.75772146,Yes,1974,None,SW,7,4,Asbury Av & Tejon St,"116,167",2140 W Asbury Ave,,Denver,CO,,39.67983295,-105.01178812,PK,"Picnic Tables, Playground, Basketball Court, Walking/Jogging Path",documents/parkart/ParkArt_Unnamed Asbury & Tejon Park.pdf,images/Parks/asburyandteton.jpg,Yes,2009-05-28 00:00:00,{00000000-0000-0000-0000-000000000000}
Godsman,Godsman Park,808,Park,Neighborhood,5.05262761,Yes,1944,None,SW,7,4,Florida Av & Zuni St,"102,680",1400 S Zuni St,,Denver,CO,,39.69020377,-105.01469334,PK,"Picnic Tables, Tennis Court",documents/parkart/ParkArt_Godsman Park.pdf,images/Parks/godsmanpark.jpg,No,2009-05-28 00:00:00,{00000000-0000-0000-0000-000000000000}
Frontier West,Frontier West,918,Park,Neighborhood,2.78979878,No,1984,None,SW,7,4,Platte River Dr & Wesley Av,"356,997",2300 S Platte River Dr,,Denver,CO,,39.67376786,-104.99786801,PK,"Picnic Tables, Bike/Pedestrian Path, South Platte River Trail",documents/parkart/ParkArt_Frontier West.pdf,images/Parks/frontierwestpark.jpg,No,2009-05-28 00:00:00,{00000000-0000-0000-0000-000000000000}
Bonnie Brae,Bonnie Brae Park,702,Park,Pocket,1.47500559,Yes,1925,None,SW,6,3,Bonnie Brae Blvd & Kentucky Av,"356,727",901 S Bonnie Brae Blvd,,Denver,CO,,39.7002049,-104.95467283,PK,"Benches, Flower Beds, Drinking Fountain, Bike/Pedestrian Path",documents/parkart/ParkArt_Bonnie Brae Park.pdf,images/Parks/bonniebraepark.jpg,Yes,2008-12-23 00:00:00,{00000000-0000-0000-0000-000000000000}
Jefferson Square,Jefferson Square Park,629,Park,Neighborhood,4.55739526,Yes,1956,None,E,4,3,Happy Canyon Rd & Ivy Way,,5773 E Happy Canyon Rd,,Denver,CO,,39.64530473,-104.92047744,PK,"Benches, Picnic Tables, Playground, Multi-purpose Field (Lacrosse, Rugby, Soccer), Baseball / Softball Field",documents/parkart/ParkArt_Jefferson Square Park.pdf,images/Parks/jeffersonsquarepark.jpg,Yes,2009-01-09 00:00:00,{00000000-0000-0000-0000-000000000000}
Huston Lake,Huston Lake Park,811,Park,Community,32.70679175,Yes,1946,None,SW,3/7,4,Ohio Av & Zuni St,"95,067",850 S Bryant St,,Denver,CO,,39.70142771,-105.01658984,PK,"Lake, Picnic Tables, Benches, Playground, Football Field, Horseshoe Pits, Basketball Court, Soccer Field, Baseball / Softball Field, Tennis Court, Drinking Fountain, Bike/Pedestrian Path, Flower Beds, Picnic Area",documents/parkart/ParkArt_Huston Lake Park.pdf,images/Parks/hustonpark.jpg,No,2009-02-09 00:00:00,{00000000-0000-0000-0000-000000000000}
Weir Gulch North,Weir Gulch Park - North of Alameda,836,Park,Community,20.58658059,Partial,1937,2010,SW,3,4,Alameda & Xavier to 3rd & Hooker,,4351 W Bayaud Ave,,Denver,CO,,39.71594556,-105.04290821,PK,"Picnic Tables, Benches, Playground, Bike/Pedestrian Path, Weir Gulch Trail, Basketball Court, Natural Areas",documents/parkart/ParkArt_Weir Gulch Park.pdf,images/Parks/weirgulchpark.jpg,No,2009-02-18 00:00:00,{00000000-0000-0000-0000-000000000000}
Globeville Landing,Globeville Landing Park,908,Park,Neighborhood,8.22584649,No,1976,None,NW,9,2,38th St & Arkins Ct,"157,272",3901 Arkins Ct,,Denver,CO,,39.77708318,-104.97684833,PK,"Picnic Tables, Picnic Shelter, Bike/Pedestrian Path, South Platte River Trail, Drinking Fountain, Disc Golf Course",documents/parkart/ParkArt_Globeville Landing Park.pdf,images/Parks/globevillepark.jpg,No,2009-02-26 00:00:00,{00000000-0000-0000-0000-000000000000}
Greenway,Greenway Park,556,Park,Community,40.36850993,Yes - 2013 January,2005,2002,NE,11,2,26th Av & Central Park Blvd,"173,642",8180 E 26th Ave,,Denver,CO,,39.75416905,-104.8928284,PK,"Dog Park, Picnic Tables, Restroom, Drinking Fountain, Playground, Skate Park, Tennis Court, Bike/Pedestrian Path, Stapleton Greenway Trail, Picnic Shelter, Community Garden, Natural Areas, Picnic Area",documents/parkart/ParkArt_Greenway Park.pdf,images/Parks/greenwaypark.jpg,Yes,2009-02-27 00:00:00,{00000000-0000-0000-0000-000000000000}
City of Brest,City of Brest Park,320,Park,Community,16.3537602,Partial,1936,2002,SW,6,3,Cherry Creek Dr S & Colorado Blvd,"356,742",3800 E Cherry Creek South Dr,,Denver,CO,,39.70699994,-104.94411131,PK,"Picnic Tables, Bike/Pedestrian Path",documents/parkart/ParkArt_City of Brest Park.pdf,images/Parks/brestpark.jpg,Yes,2009-07-17 00:00:00,{00000000-0000-0000-0000-000000000000}
DCPA Sculpture Park,DCPA Sculpture Park,340,Park,Special Use,2.53030182,Yes,,None,NW,8,6,Speer Blvd & Champa St,"166,716",1201 Champa St,,Denver,CO,,39.74342506,-104.99932806,,"Public Art, Flower Beds",0,images/Parks/no_imagerec.gif,Yes,2009-08-11 00:00:00,{00000000-0000-0000-0000-000000000000}
Bear Valley,Bear Valley Park,140,Park,Community,72.10689034,Partial,1960,None,SW,2,4,Lamar St & Dartmouth Av,"61,292",6400 W Dartmouth Ave,,Denver,CO,,39.66062186,-105.07496863,PK,"Playground, Picnic Shelter, Benches, Tennis Court, Bike/Pedestrian Path, Bear Creek Trail, Soccer Field, Baseball / Softball Field, Drinking Fountain, Natural Areas, Picnic Tables, Picnic Area",documents/parkart/ParkArt_Bear Valley Park.pdf,images/Parks/bearvalleypark.jpg,No,2014-03-07 00:00:00,{00000000-0000-0000-0000-000000000000}
Harvard Gulch,Harvard Gulch Park,829,Park,Community,38.14233509,Yes,1977,1991,SW,7,4,Harvard Av & Logan St,"165,857",550 E Iliff Ave,,Denver,CO,,39.67309371,-104.9810544,PK,"Recreation Center, Picnic Tables, Playground, Bike/Pedestrian Path, Outdoor Pool, Golf Course, Soccer Field, Baseball / Softball Field, Basketball Court, Benches, Parking Lot",documents/parkart/ParkArt_Harvard Gulch Park.pdf,images/Parks/harvardgulchpark.jpg,Yes,2008-12-23 00:00:00,{00000000-0000-0000-0000-000000000000}
Confluence East,Confluence East Park,940,Park,Community,0.9195539,No,2001,2013,NW,9,6,Cherry Creek & Platte River ,"178,547",2190 15th St,,Denver,CO,,39.75455096,-105.00760312,,"Picnic Tables, Plaza, Bike/Pedestrian Path, South Platte River Trail, Cherry Creek Trail, Benches",documents/parkart/ParkArt_Confluence Park.pdf,images/Parks/no_imagerec.gif,Yes,2009-03-11 00:00:00,{00000000-0000-0000-0000-000000000000}
Kennedy Ballfields,Kennedy Ballfields Complex,617,Park,Athletic Multiuse Complex,56.68844011,Not Eligible,1967,2003,E,4,3,Dartmouth Av & Kenton St,,3398 S Kenton St,,Denver,CO,,39.65659885,-104.85467898,PK,"Baseball / Softball Field Complex, Press Box, Restroom, Drinking Fountain, Parking Lot, Shade Structure, Natural Areas",documents/parkart/ParkArt_Kennedy Ballfield Complex.pdf,images/Parks/kennedypark.jpg,No,2009-06-25 00:00:00,{00000000-0000-0000-0000-000000000000}
Kennedy Soccer,Kennedy Soccer Complex,625,Park,Athletic Multiuse Complex,39.24671609,Not Eligible,1964,2003,E,4,3,Dayton St & Hampden Av,"356,581",9700 E Hampden Ave,,Denver,CO,,39.64775968,-104.87372723,PK,"Dog Park, Soccer Field Complex, Parking Lot, Natural Areas",documents/parkart/ParkArt_Kennedy Soccer Complex.pdf,images/Parks/kennedypark.jpg,Yes,2009-06-25 00:00:00,{00000000-0000-0000-0000-000000000000}
City of Takayama,City of Takayama Park,331,Park,Neighborhood,6.06029558,Yes,1966,None,E,10,3,Cherry Creek Dr N & Colorado Blvd,"356,853",3700 E Cherry Creek North Dr,,Denver,CO,,39.70868281,-104.94404297,PK,"Benches, Bike/Pedestrian Path, Cherry Creek Trail",documents/parkart/ParkArt_City of Takayama Park.pdf,images/Parks/takayamapark.jpg,No,2009-09-30 00:00:00,{00000000-0000-0000-0000-000000000000}
Union & Dudley,Union & Dudley,179,Trail,Trail,0.66785624,Not Eligible,,N/A,SW,2,4,Union Av & Dudley St,,,,Denver,CO,,39.63225768,-105.09468896,,Trail Connection,,,Yes,2012-07-31 00:00:00,{00000000-0000-0000-0000-000000000000}
Kelly Open Space,Kelly Open Space,L08,Open Space,Open Space,59.53113619,Not Eligible,Future,None,NE,5,3,11th Av & Uinta St,,8200 E 11th Ave,,Denver,CO,,39.72976597,-104.8905515,,Unlisted,0,images/Parks/no_imagerec.gif,No,,{00000000-0000-0000-0000-000000000000}
Globeville Rec Center,Globeville Recreation Center,228,Grounds,Rec Center,0.21231417,No,1977,None,NW,9,2,45th Ave & Grant St,"34,483",4496 N Grant St,,Denver,CO,,39.77814605,-104.98327388,,Unlisted,0,,Yes,2014-01-01 00:00:00,{00000000-0000-0000-0000-000000000000}
Mount Lindo,Mount Lindo Tract,M36,Conservation Tract,Mountain,157.93272349,Yes,1924,2008,MP,None,None,,,,,,CO,,39.61487845,-105.20092238,,"Scenic View, Natural Open Space",0,images/Parks/no_imagerec.gif,,2010-05-14 00:00:00,{00000000-0000-0000-0000-000000000000}
Newton,Newton Park,M38,Park,Mountain,435.91592239,Yes,1939,2008,MP,None,None,,,11026 South Highway 285,,Conifer,CO,80433,39.51215536,-105.29731119,MP,"Special Permit Picnic Area, Picnic Shelter, Picnic Tables, Grills, Firepits, Softball Field, Volleyball Court, Horseshoe Pits, Hiking Trails, Restroom",documents/parkart/Newton_ParkMap.pdf,images/Parks/newtonpark.jpg,,2010-05-14 00:00:00,{00000000-0000-0000-0000-000000000000}
Bear Creek Canyon,Bear Creek Canyon Tract,M01,Conservation Tract,Mountain,127.04747976,Yes,,2008,MP,None,None,,,,,,CO,,39.65356361,-105.21139503,,"Fishing, Fishing Access, Riparian Natural Areas",,images/Parks/bearcreekmtnpark.jpg,,2010-05-20 00:00:00,{00000000-0000-0000-0000-000000000000}
Lookout Mountain,Lookout Mountain Park,M32,Park,Mountain,75.13153465,Yes,0,2008,MP,None,None,,,987 Lookout Mountain Road,,Golden,CO,80401,39.73318903,-105.24180861,MP,"Views, Five Mile Scenic Lariat Trail, Beaver Brook Trailhead, Nature Center & Preserve, Historic Spring House, Buffalo Bill Grave & Museum, Pahaska Tepee, Picnic Shelter, Tables, Restroom, Grills",documents/parkart/LookoutMtn_ParkMap.pdf,images/Parks/lookoutmountainpark.jpg,,2010-05-21 00:00:00,{00000000-0000-0000-0000-000000000000}
Loretto Heights,Loretto Heights Park,163,Park,Neighborhood,13.76133086,Yes,1977,None,SW,2,4,Amherst Av & Lowell Blvd,"356,588",2800 S Lowell Blvd,,Denver,CO,,39.66386211,-105.03277884,PK,"Picnic Shelter, Picnic Tables, Benches, Playground, Natural Areas, Bike/Pedestrian Path, Picnic Area",documents/parkart/ParkArt_Loretto Heights Park.pdf,images/Parks/lorettoheightspark.jpg,Yes,2008-11-25 00:00:00,{00000000-0000-0000-0000-000000000000}
Hutchinson,Hutchinson (Theodore A) Park,616,Open Space,Open Space,16.30287507,Yes,1967,2002,E,4,3,Tamarac Dr & Cornell Av,,7201 E Eastman Ave,,Denver,CO,,39.65848114,-104.9038553,PK,"Picnic Tables, Benches, Playground, Parking Lot, Bike/Pedestrian Path, Natural Areas",documents/parkart/ParkArt_Hutchinson (Theodore A) Park.pdf,images/Parks/hutchinsonpark.jpg,Yes,2009-01-09 00:00:00,{00000000-0000-0000-0000-000000000000}
Wagon Trail,Wagon Trail Park,177,Open Space,Open Space,16.03828181,Not Eligible,1981,None,SW,2,4,Wagon Trail Dr & Saratoga Pl,"155,443",4795 S Garland St,,Denver,CO,,39.63101634,-105.1046253,PK,"Bike/Pedestrian Path, Natural Areas",documents/parkart/ParkArt_Wagon Trail.pdf,images/Parks/villagewestpark.jpg,Yes,2009-12-14 00:00:00,{00000000-0000-0000-0000-000000000000}
Williams,Williams (Dr. Daniel Hale) Park,225,Park,Pocket,0.61318698,Yes,1974,None,NW,8,2,30th Av & Lafayette St,,3000 N Lafayette St,,Denver,CO,,39.75962844,-104.97124858,PK,"Playground, Basketball Court, Benches, Picnic Tables",documents/parkart/ParkArt_Williams (Dr. Daniel Hale) Park.pdf,images/Parks/williamspark.jpg,Yes,2009-02-04 00:00:00,{00000000-0000-0000-0000-000000000000}
Falcon,Falcon Park,537,Park,Neighborhood,9.64260589,Yes,1966,None,NE,11,5,Maxwell Pl & Xanadu St,"356,960",13650 E Maxwell Pl,,Denver,CO,,39.79297321,-104.82837032,PK,"Benches, Picnic Tables, Playground, Basketball Court, Football Field, Baseball / Softball Field, Bike/Pedestrian Path",documents/parkart/ParkArt_Falcon Park.pdf,images/Parks/falconpark.jpg,Yes,2008-11-25 00:00:00,{00000000-0000-0000-0000-000000000000}
Bayaud,Bayaud Park,L05,Park,Neighborhood,6.9509532,Yes - 2014 May,2007,None,NE,5,3,Bayaud Av & Quebec St,"134,158",7700 E Bayaud Ave,,Denver,CO,,39.71460752,-104.89741207,PK,"Playground, Bike/Pedestrian Path",documents/parkart/ParkArt_Bayaud Park.pdf,images/Parks/bayaudpark.jpg,Yes,2009-08-11 00:00:00,{00000000-0000-0000-0000-000000000000}
Prairie,Prairie Park,856,Open Space,Open Space,7.43261832,No,2005,None,SW,6,3,Buchtel Blvd - University to Monroe,"351,569",2551 E Buchtel Blvd,,Denver,CO,,39.68106987,-104.94726435,PK,"Bike/Pedestrian Path, Open Space, Natural Areas, Benches",documents/parkart/ParkArt_Prairie Park.pdf,images/Parks/prairiepark.jpg,No,2009-08-11 00:00:00,{00000000-0000-0000-0000-000000000000}
Irving & Java,Sanderson Gulch - Irving & Java,841,Park,Community,6.61955817,Partial,1951,2010,SW,2,4,Irving St And Java Way,"366,243",1640 S Irving St,,Denver,CO,,39.68677934,-105.02809252,,"Playground, Basketball Court, Bike/Pedestrian Path, Sanderson Gulch Trail, Picnic Tables",documents/parkart/ParkArt_Sanderson Gulch Open Space.pdf,images/Parks/sandersongulchpark.jpg,Yes,2009-08-11 00:00:00,{00000000-0000-0000-0000-000000000000}
47th & Walden,Unnamed 47th & Walden Park,564,Future,Undeveloped,14.48231961,Not Eligible,2008,None,NE,11,5,47th Av & Walden St,,4600 N Walden St,,Denver,CO,,39.78042263,-104.77965154,,"Future Park Location, Undeveloped Park",0,images/Parks/no_imagerec.gif,Yes,2009-05-28 00:00:00,{00000000-0000-0000-0000-000000000000}
Montbello Civic Center,Montbello Civic Center Park,535,Park,Neighborhood,6.65769555,Yes,1967,None,NE,11,5,Albrook Dr & Tulsa St,,4401 N Crown Blvd,,Denver,CO,,39.78062,-104.839878,PK,"Library, Benches, Picnic Tables, Bike/Pedestrian Path, Flower Beds",documents/parkart/ParkArt_Montbello Civic Center Park.pdf,images/Parks/montbellopark.jpg,No,2011-02-16 00:00:00,{00000000-0000-0000-0000-000000000000}
Harvard Gulch Mini,Harvard Gulch Mini Park,816,Park,Pocket,0.64307546,Partial,1970,2010,SW,7,3,Harvard Gulch & Marion St,"356,540",2489 S Marion St,,Denver,CO,,39.67155521,-104.97260523,PK,"Playground, Benches, Bike/Pedestrian Path, Harvard Gulch Trail, Picnic Tables",documents/parkart/ParkArt_Harvard Gulch East Park.pdf,images/Parks/harvardgulchminipark.jpg,Yes,,{00000000-0000-0000-0000-000000000000}
Rocky Mountain Lake,Rocky Mountain Lake Park,7,Park,Community,55.8197086,Yes,1906,None,NW,1,1,46th Av & Hooker St,"366,242",3301 W 46th Ave,,Denver,CO,,39.78189639,-105.03035104,PK,"Drinking Fountain, Restroom, Baseball / Softball Field, Bike/Pedestrian Path,  Football Field, Horseshoe Pits, Lake, Flower Beds, Tennis Court, Playground, Benches, Picnic Tables, Picnic Area",documents/parkart/ParkArt_Rocky Mountain Lake Park.pdf,images/Parks/rockymountainlakepark.jpg,,,{00000000-0000-0000-0000-000000000000}
Railyard,Railyard Dog Park,922,Park,Neighborhood,0.76950161,Yes - 1993,2010,None,NW,9,6,19th St & Bassett St,"354,160",2111 19th St,,Denver,CO,,39.75820761,-105.00128931,PK,"Dog Park, Benches, Picnic Tables, Shade Structure, Drinking Fountain",documents/parkart/ParkArt_Railyard Dog Park.pdf,,No,2011-02-14 00:00:00,{00000000-0000-0000-0000-000000000000}
Central Denver Rec Center,Central Denver Rec Center,250,Grounds,Rec Center,2.91719114,No,2010,None,E,8,2,16th Av & Josephine St,"58,332",1530 N Josephine St,,Denver,CO,,39.74102467,-104.9583682,,"Interim Dog Park, Community Garden, Future Recreation Center Site",,,Yes,2014-04-17 00:00:00,{00000000-0000-0000-0000-000000000000}
Bible,Bible (James A) Park,602,Park,Community,66.15183172,Yes,1961,None,E,4,3,Newport St & Yale Av,"366,379",6802 E Yale Ave,,Denver,CO,,39.66541323,-104.90707341,PK,"Benches, Drinking Fountain, Picnic Tables, Playground, Restroom, Baseball / Softball Field Complex, Basketball Court, Tennis Court, Bike/Pedestrian Path, High Line Canal Trail, Fitness Course, Football Field, Natural Areas, Picnic Area",documents/parkart/ParkArt_Bible (James A) Park.pdf,images/Parks/biblepark.jpg,Yes,2009-01-09 00:00:00,{00000000-0000-0000-0000-000000000000}
Westerly Creek,Westerly Creek Park,560,Open Space,Open Space,65.597587,No,2007,2002,NE,11,2,Martin Luther King Jr Blvd & Beeler St,,9200 E 26th Ave,,Denver,CO,,39.75745594,-104.87831703,PK,"Bike/Pedestrian Path, Westerly Creek Trail, Benches, Natural Areas",documents/parkart/ParkArt_Westerly Creek Park.pdf,images/Parks/westerlycreekpark.jpg,Yes,2009-02-27 00:00:00,{00000000-0000-0000-0000-000000000000}
New Freedom,New Freedom Park,L26,Park,Neighborhood,2.13499144,Yes - 2013 April,2007,2002,NE,11,2,13th Av & Xenia St,,8800 E 13th Ave,,Denver,CO,,39.73676264,-104.88585221,PK,"Picnic Tables, Synthetic Field, Playground, Community Garden, Bike/Pedestrian Path, Westerly Creek Trail",documents/parkart/ParkArt_New Freedom Park.pdf,images/Parks/westerlycreekpark.jpg,Yes,2009-02-27 00:00:00,{00000000-0000-0000-0000-000000000000}
Westerly Creek (Lowry),Westerly Creek (Lowry),L27,Open Space,Open Space,2.32204064,Not Eligible,2007,None,NE,11,2,Xanthia St & Richtofen Pl,,,,Denver,CO,,39.73676264,-104.88585221,,"Bike/Pedestrian Path, Westerly Creek Trail, Natural Areas",0,images/Parks/westerlycreekpark.jpg,Yes,2009-02-27 00:00:00,{00000000-0000-0000-0000-000000000000}
Highline Canal (GVR),Highline Canal (GVR),501,Trail,Trail,28.69908137,No,,None,NE,11,5,Highline Canal Green Valley Ranch Section,,,,Denver,CO,,39.77759097,-104.75094634,,"Bike/Pedestrian Path, High Line Canal Trail, Open Space, Natural Areas",documents/parkart/ParkArt_Highline Canal.pdf,images/Parks/no_imagerec.gif,Yes,2009-06-08 00:00:00,{00000000-0000-0000-0000-000000000000}
Derby Lateral,Derby Lateral/Highline Canal,547,Trail,Trail,9.74442287,No,,None,NE,11,5,Highline Canal Parkfield Section,,,,Denver,CO,,39.77759097,-104.75094634,,"Bike/Pedestrian Path, High Line Canal Trail, Open Space, Natural Areas",documents/parkart/ParkArt_Highline Canal.pdf,images/Parks/no_imagerec.gif,Yes,2009-06-08 00:00:00,{00000000-0000-0000-0000-000000000000}
34th & Arkins,Unnamed 34th & Arkins,944,Future,Undeveloped,2.07683129,Not Eligible,2011,N/A,NW,9,6,34th Av & Arkins Ct,,3400 Arkins Ct,,Denver,CO,,39.77049482,-104.98088082,,Future park development,,,Yes,2011-10-11 00:00:00,{00000000-0000-0000-0000-000000000000}
City of Karmiel,City of Karmiel Park,341,Park,Neighborhood,3.3452965,Yes,1978,None,E,6,3,Cherry Creek Dr N & Alameda Av,,3300 E Cherry Creek North Dr,,Denver,CO,,39.71219071,-104.94824935,PK,"Benches, Bike/Pedestrian Path, Cherry Creek Trail",documents/parkart/ParkArt_City of Karmiel Park.pdf,images/Parks/karmielpark.jpg,No,2009-09-30 00:00:00,{00000000-0000-0000-0000-000000000000}
Cherry Creek,Cherry Creek Park,330,Park,Neighborhood,2.35265787,Yes,,2000,E,10,3,Steele St & Bayaud Av,"356,741",4 N University Blvd,,Denver,CO,,39.71445857,-104.95074173,PK,"Bike/pedestrian Path, Cherry Creek Trail, Benches, Fountain, Natural Areas",documents/parkart/ParkArt_Cherry Creek Park.pdf,images/Parks/cherrycreekpark.jpg,No,2009-09-30 00:00:00,{00000000-0000-0000-0000-000000000000}
Goldsmith Gulch Open Space,Goldsmith Gulch Open Space,608,Open Space,Open Space,2.5488338,Not Eligible,1965,None,E,4,3,Goldsmith Gulch - Eastman Av To Hampden Av,"356,985",7601 E Hampden Ave,,Denver,CO,,39.65492748,-104.90164309,,Open Space,documents/parkart/ParkArt_Goldsmith Gulch Open Space.pdf,images/Parks/no_imagerec.gif,Yes,2009-07-17 00:00:00,{00000000-0000-0000-0000-000000000000}
Glenarm Recreation Center,Glenarm Recreation Center,223,Grounds,Rec Center,1.03349553,Not Eligible,1969,None,NW,8,6,28th St & Glenarm Pl,"228,983",2800 Glenarm Pl,,Denver,CO,,39.75506804,-104.97535273,,Unlisted,0,,No,,{00000000-0000-0000-0000-000000000000}
E 56th Ave,E 56th Ave Open Space,546,Open Space,Open Space,9.98933454,Not Eligible,,2008,NE,11,5,56th Av - Peoria St To Chambers Rd,,,,Denver,CO,,39.79808932,-104.81794039,,"Bike/Pedestrian Path, Benches",0,images/Parks/no_imagerec.gif,Yes,2010-03-18 00:00:00,{00000000-0000-0000-0000-000000000000}
Chambers Rd,Chambers Rd Open Space,510,Open Space,Open Space,13.09699744,Not Eligible,,None,NE,11,5,Chambers Rd - 56th Av to 40th Av,,,,Denver,CO,,39.79256362,-104.80995874,,Bike/Pedestrian Path,0,images/Parks/no_imagerec.gif,Yes,2010-03-18 00:00:00,{00000000-0000-0000-0000-000000000000}
Starbuck,Starbuck Park,M48,Park,Mountain,10.66059062,Yes,0,2008,MP,None,None,,,,,,CO,,39.663159,-105.24030846,,Riparian Natural Areas,0,images/Parks/no_imagerec.gif,,2010-05-14 00:00:00,{00000000-0000-0000-0000-000000000000}
Stout St Children's,Stout Street Children's Park,221,Park,Pocket,0.21902817,Yes,1969,None,NW,8,6,25th St & Stout St,"171,018",2501 Stout St,,Denver,CO,,39.75460091,-104.98222867,PK,"Picnic Tables, Playground, Basketball Court",documents/parkart/ParkArt_Stout Street Childrens' Park.pdf,images/Parks/stoutchildrenspark.jpg,Yes,2009-12-11 00:00:00,{00000000-0000-0000-0000-000000000000}
Schafer,Schafer (Martin J) Park,218,Park,Neighborhood,8.90164703,Yes,1948,None,NW,8,2,37th Av & Clayton St,"37,631",3724 N Columbine St,,Denver,CO,,39.76873504,-104.95612086,PK,"Playground, Baseball / Softball Field, Basketball Court, Football Field, Tennis Court, Picnic Tables, Bike/Pedestrian Path",documents/parkart/ParkArt_Schafer (Martin J) Park.pdf,images/Parks/schaferpark.jpg,Yes,2009-02-04 00:00:00,{00000000-0000-0000-0000-000000000000}
Aspgren,Aspgren (Clifford) Park,801,Park,Neighborhood,3.68071357,Yes,1956,None,SW,7,4,Exposition Av & Lipan St,"356,725",1201 W Exposition Ave,,Denver,CO,,39.70443418,-105.0026841,PK,"Picnic Tables, Playground, Baseball / Softball Field",documents/parkart/ParkArt_Aspgren (Clifford) Park.pdf,images/Parks/aspgrenpark.jpg,Yes,2009-07-17 00:00:00,{00000000-0000-0000-0000-000000000000}
Dunham,Dunham (Lee) Park,209,Park,Neighborhood,2.45850396,Yes,1892,None,NW,9,2,44th Av & Clayton St,"356,587",4401 N Clayton St,,Denver,CO,,39.77830207,-104.95469686,PK,"Benches, Picnic Tables, Playground, Basketball Court, Baseball / Softball Field",documents/parkart/ParkArt_Dunham (Lee) Park.pdf,images/Parks/dunhampark.jpg,Yes,2009-03-24 00:00:00,{00000000-0000-0000-0000-000000000000}
Commons,Commons Park,902,Park,Community,17.6081094,Yes,1995,2002,NW,9,6,15th St & Little Raven St,"54,067",2101 15th St,,Denver,CO,,39.75672381,-105.00525409,PK,"Benches, Restroom, Drinking Fountain, Bike/Pedestrian Path, South Platte River Trail, Walking/Jogging Paths, Natural Areas",documents/parkart/ParkArt_Commons Park.pdf,images/Parks/commonspark.jpg,Yes,2009-03-11 00:00:00,{00000000-0000-0000-0000-000000000000}
Quick,Quick (Lenore B) Park,220,Park,Pocket,0.43408897,Yes,1948,1997,NW,8,6,26th Av & Ogden St,"56,575",2561 N Ogden St,,Denver,CO,,39.7543125,-104.97488634,PK,"Benches, Picnic Tables, Playground, Basketball Court",documents/parkart/ParkArt_Quick (Lenore B) Park.pdf,images/Parks/quickpark.jpg,Yes,2009-02-04 00:00:00,{00000000-0000-0000-0000-000000000000}
MacIntosh,MacIntosh (Kenneth M) Park,236,Park,Pocket,0.32557793,Yes,1982,None,NW,8,6,15th St & Cleveland Pl,"168,091",201 W Colfax Ave,,Denver,CO,,39.74054014,-104.98952145,,"Bike/Pedestrian Path, Memorial / Monument",0,images/Parks/no_imagerec.gif,No,2009-01-21 00:00:00,{00000000-0000-0000-0000-000000000000}
Summit Lake,Summit Lake Park,M50,Park,Mountain,161.64626373,Partial,0,2008,MP,None,None,,,,,,CO,,39.59821799,-105.64346261,MP,"Historic Shelter, Restroom, Trails & Trail Connections, Views, Overlook",documents/parkart/SummitLake_ParkMap.pdf,images/Parks/summitlakemtnpark.jpg,,2010-06-25 00:00:00,{00000000-0000-0000-0000-000000000000}
Genesee,Genesee Park,M26,Park,Mountain,"2,402.13535002",Partial,1926,2008,MP,None,None,,,26771 Genesee Lane,,Golden,CO,80401,39.71329831,-105.31078429,MP,"Views, Bison Herd, Trails, Picnic Shelter, Picnic Tables, Softball Field, Volleyball Court, Horseshoe Pits, Grills, Restroom, Chief Hosa Lodge, Event Facility, Campgrounds, Ropes Course",documents/parkart/ParkArt_Geneseemapfacilities.pdf,images/Parks/geneseepark.jpg,,2010-05-20 00:00:00,{00000000-0000-0000-0000-000000000000}
Katherine Craig,Katherine Craig Park,M12,Park,Mountain,52.35061238,Yes,0,2008,MP,None,None,,,25419 US Highway 40,,Golden,CO,80401,39.71174213,-105.28793138,,"Natural Open Space, Special Use Activities",0,images/Parks/no_imagerec.gif,,2010-05-14 00:00:00,{00000000-0000-0000-0000-000000000000}
Colorow Point,Colorow Point Park,M10,Park,Mountain,0.28009947,Yes,0,2008,MP,None,None,,,900 Colorow Road,,Golden,CO,80401,39.73210122,-105.24904227,MP,"Scenic Overlook, Stone Benches, Trail Access (Beaver Brook via Colorow Trail)",,images/Parks/colorowpointmtnpark.jpg,,2010-05-21 00:00:00,{00000000-0000-0000-0000-000000000000}
O'Fallon,O'Fallon Park,M40,Park,Mountain,814.62581698,Yes,0,2008,MP,None,None,,,25500 State Highway 74,,Evergreen,CO,80439,39.64530517,-105.28304996,MP,"Historic Fireplace/Monument, Picnic Area, Picnic Tables, Grills, Picnic Loop Trail, West Ridge Trail, Meadow View Trail, Bear Creek Trail",documents/parkart/corwina_ofallon_pence.pdf,images/Parks/ofallonpark.jpg,,2010-05-21 00:00:00,{00000000-0000-0000-0000-000000000000}
Fillius,Fillius Park,M23,Park,Mountain,109.690576,Partial,0,2008,MP,None,None,,,1300 Old Highway 74,,Evergreen,CO,80439,39.69607902,-105.35235166,MP,"Picnic Shelter, Picnic Tables, Grills, Restroom, Volleyball Court, Horseshoe Pits, Historic Stone Wellhouse",documents/parkart/Fillius_ParkMap.pdf,images/Parks/filliusmtnpark.jpg,,2010-05-14 00:00:00,{00000000-0000-0000-0000-000000000000}
Mount Pence,Mount Pence Tract,M37,Conservation Tract,Mountain,548.25382751,Yes,0,2008,MP,None,None,,,,,,CO,,39.68124429,-105.41087491,,"Scenic View, Wildlife Habitat, Natural Open Space",0,images/Parks/no_imagerec.gif,,2010-05-24 00:00:00,{00000000-0000-0000-0000-000000000000}
Elmendorf,Elmendorf Park,536,Park,Neighborhood,5.7942527,Yes,1966,None,NE,11,5,Elmendorf Pl & Scranton St,"357,042",12701 E Elmendorf Pl,,Denver,CO,,39.79256388,-104.84142359,PK,"Benches, Picnic Tables, Playground, Basketball Court, Baseball / Softball Field, Soccer Field",documents/parkart/ParkArt_Elmendorf Park.pdf,images/Parks/elmendorfpark.jpg,Yes,2008-11-25 00:00:00,{00000000-0000-0000-0000-000000000000}
Garland South Greenbelt,Garland South Greenbelt,649,Open Space,Open Space,2.47515117,Not Eligible,,None,E,6,3,Monaco & Cherry Creek North Dr,,,,Denver,CO,,39.69111345,-104.91179673,,"Bike/Pedestrian Path, Open Space, Natural Areas",documents/parkart/ParkArt_Garland South Greenbelt.pdf,images/Parks/no_imagerec.gif,Yes,2010-02-26 00:00:00,{00000000-0000-0000-0000-000000000000}
20th St Rec Center,20th St Rec Center,234,Grounds,Rec Center,0.28585818,Not Eligible,1980,None,NW,9,6,20th St & Curtis St,"55,052",1011 20th St,,Denver,CO,,39.75130534,-104.98997474,,Unlisted,0,,Yes,2014-01-01 00:00:00,{00000000-0000-0000-0000-000000000000}
SW Rec Center,Southwest Recreation Center,101,Park,Neighborhood,6.21980174,No,1981,None,SW,2,4,Garrison St & Saratoga Pl,"190,713",9200 W Saratoga Pl,,Denver,CO,,39.62899527,-105.09935606,PK,"Recreation Center, Outdoor Pool, Soccer Field, Baseball / Softball Field, Benches",documents/parkart/ParkArt_Southwest Recreation Center.pdf,images/Parks/no_imagerec.gif,Yes,2009-12-11 00:00:00,{00000000-0000-0000-0000-000000000000}
City of Potenza,City of Potenza Park,762,Park,Neighborhood,4.55813744,Yes,1977,None,E,6,3,Cherry Creek Dr S & Holly St,"356,811",1101 S Holly St,,Denver,CO,,39.69600699,-104.92362203,PK,"Benches, Playground, Bike/Pedestrian Path, Bocce Ball Court",documents/parkart/ParkArt_City of Potenza Park.pdf,images/Parks/potenzapark.jpg,No,2008-12-12 00:00:00,{00000000-0000-0000-0000-000000000000}
Lindsley,Lindsley (Henry S) Park,401,Park,Neighborhood,7.06665926,Yes,1937,None,E,10,3,12th Av & Dexter St,"129,722",4601 E Hale Pkwy,,Denver,CO,,39.73404421,-104.93288074,PK,"Benches, Picnic Shelter, Drinking Fountain, Picnic Tables, Playground, Basketball Court, Bike/Pedestrian Path, Horseshoe Pits, Baseball / Softball Field, Tennis Court, Picnic Area",documents/parkart/ParkArt_Lindsley (Henry S) Park.pdf,images/Parks/lindsleypark.jpg,Yes,2009-05-19 00:00:00,{00000000-0000-0000-0000-000000000000}
Forsberg,Forsberg Park,M25,Conservation Tract,Mountain,3.28768946,Yes,0,2008,MP,None,None,,,,,,CO,,39.69093658,-105.418605,,"Scenic View, Natural Open Space",0,images/Parks/no_imagerec.gif,,2010-05-24 00:00:00,{00000000-0000-0000-0000-000000000000}
Bergen Peak,Bergen Peak Tract,M05,Conservation Tract,Mountain,621.35805986,Yes,1926,2008,MP,None,None,,,,,,CO,,39.6698141,-105.38546638,,"Trail connection through Jefferson County Open Space, Scenic viewshed",0,images/Parks/berganpeakpark.jpg,,2010-05-21 00:00:00,{00000000-0000-0000-0000-000000000000}
Frog Hollow,Frog Hollow Park,906,Park,Neighborhood,5.66635971,No,1976,None,NW,9,1,8th Av & Zuni St,"356,963",2350 W 8th Ave,,Denver,CO,,39.72865596,-105.01567072,PK,"Drinking Fountain, Picnic Tables, Bike/Pedestrian Path, South Platte River Trail",documents/parkart/ParkArt_Frog Hollow Park.pdf,images/Parks/froghollowpark.jpg,No,2009-10-07 00:00:00,{00000000-0000-0000-0000-000000000000}
Richthofen,Richthofen Memorial Fountain,467,Park,Pocket,0.12457204,Yes,1969,None,E,5,3,Oneida St & Oneida Pl,,1120 N Oneida St,,Denver,CO,,39.73348895,-104.9079275,,"Fountain, Memorial / Monument",documents/parkart/ParkArt_Richthofen Memorial Fountain.pdf,images/Parks/no_imagerec.gif,No,2009-09-16 00:00:00,{00000000-0000-0000-0000-000000000000}
Aqua Golf,Aqua Golf at Overland,GA1,Golf,Golf,14.11166538,No,1976,None,SW,7,4,Florida Av & Santa Fe Dr,"104,666",501 W Florida Ave,,Denver,CO,,39.69042043,-104.9949767,,Unlisted,documents/parkart/OverlandGolfCourse.pdf,,No,,{00000000-0000-0000-0000-000000000000}
Swansea,Swansea Park,210,Park,Neighborhood,10.72957495,Yes,1947,2008,NW,9,2,49th Av & Clayton St,"23,288",2650 E 49th Ave,,Denver,CO,,39.7855413,-104.95558527,PK,"Recreation Center, Picnic Tables, Playground, Outdoor Pool, Tennis Court, Football Field, Baseball / Softball Field, Bike/Pedestrian Path",documents/parkart/ParkArt_Swansea Park.pdf,images/Parks/swanseapark.jpg,No,2009-03-24 00:00:00,{00000000-0000-0000-0000-000000000000}
Montbello Central,Montbello Central Park,541,Park,Community,36.89047549,Yes,1977,None,NE,11,5,Andrews Dr & Crown Blvd,"1,709",14255 E Andrews Dr,,Denver,CO,,39.78406031,-104.8276591,PK,"Picnic Shelter, Playground, Baseball / Softball Field Complex, Press Box, Soccer Field, Tennis Court, Restroom, Drinking Fountain, Picnic Tables, Benches, Bike/Pedestrian Path, Parking Lot",documents/parkart/ParkArt_Montbello Central Park.pdf,images/Parks/montbellopark.jpg,Yes,2008-11-25 00:00:00,{00000000-0000-0000-0000-000000000000}
Ash Grove,Ash Grove Park,751,Park,Neighborhood,7.30565048,Yes,1973,None,E,6,3,Holly St & Mexico Av,"356,723",1701 S Holly St,,Denver,CO,,39.68527669,-104.92411106,PK,"Benches, Picnic Tables, Playground, Basketball Court, Soccer Field, Bike/Pedestrian Path",documents/parkart/ParkArt_Ash Grove Park.pdf,images/Parks/ashgrovepark.jpg,Yes,2008-12-12 00:00:00,{00000000-0000-0000-0000-000000000000}
Congress,Congress Park,314,Park,Community,19.19688703,Yes,1890,None,E,10,3,8th Av & Josephine St,,850 N Josephine St,,Denver,CO,,39.73009893,-104.95708381,PK,"Benches, Drinking Fountain, Picnic Shelter, Picnic Tables, Playground, Outdoor Pool, Restroom, Basketball Court, Football Field, Baseball / Softball Field, Soccer Field, Tennis Court, Parking Lot, Picnic Area",documents/parkart/ParkArt_Congress Park.pdf,images/Parks/congresspark.jpg,Yes,2009-08-14 00:00:00,{00000000-0000-0000-0000-000000000000}
Elyria,Elyria Park,204,Park,Neighborhood,2.56158354,Yes,1911,2005,NW,9,2,48th Av & High St,"263,317",4809 N Race St,,Denver,CO,,39.78448004,-104.96400703,PK,"Recreation Center, Drinking Fountain, Picnic Tables, Playground, Basketball Court, Baseball / Softball Field, Sand Volleyball Court, Benches, Skate Park",documents/parkart/ParkArt_Elyria Park.pdf,images/Parks/elriapark.jpg,Yes,2009-03-24 00:00:00,{00000000-0000-0000-0000-000000000000}
Town Center,Town Center Park,558,Park,Community,26.22289953,No,2008,2005,NE,11,5,49th Av & Argonne St,"225,863",5050 N Argonne St,,Denver,CO,,39.78835796,-104.76582258,PK,"Recreation Center, Lake, Restroom, Drinking Fountain, Playground, Benches, Picnic Shelter, Baseball / Softball Field, Basketball Court, Skate Park, Bike/Pedestrian Path",documents/parkart/ParkArt_Town Center Park.pdf,images/Parks/towncenterpark.jpg,No,2009-05-06 00:00:00,{00000000-0000-0000-0000-000000000000}
Harvard Gulch Golf Course,Harvard Gulch Golf Course,GH1,Golf,Golf,12.95638378,Yes,1977,1991,SW,7,4,Iliff Av & Pearl St,"165,438",660 E Iliff Ave,,Denver,CO,,39.67260759,-104.97972881,,Unlisted,documents/parkart/HarvardGulchGolfCourse.pdf,,No,2008-12-23 00:00:00,{00000000-0000-0000-0000-000000000000}
Green Valley Ranch East,Green Valley Ranch East Park,550,Park,Community,13.45566338,Yes - 2013 April,1984,None,NE,11,5,47th Av & Jebel St,"6,987",4455 N Jebel St,,Denver,CO,,39.77892163,-104.75108805,PK,"Dog Park, Benches, Drinking Fountain, Picnic Shelter, Picnic Tables, Playground, Football Field, Baseball / Softball Field, Tennis Court, Basketball Court, Outdoor Pool, Sand Volleyball Court, Parking Lot, Picnic Area",documents/parkart/ParkArt_Green Valley Ranch East Park.pdf,images/Parks/greenvalleyranchpark.jpg,No,2009-05-06 00:00:00,{00000000-0000-0000-0000-000000000000}
City of Ulaanbaatar,City of Ulaanbaatar Park,L17,Park,Neighborhood,5.10408537,No,2000,None,NE,5,3,5th Av & Roslyn St,"356,585",500 N Roslyn St,,Denver,CO,,39.724399,-104.89997905,PK,"Benches, Playground, Natural Areas, Drinking Fountain, Bike/Pedestrian Path, Shade Structure",documents/parkart/ParkArt_City of Ulaanbaatar Park.pdf,images/Parks/cityulaanbaatarpark.jpg,Yes,2009-05-19 00:00:00,{00000000-0000-0000-0000-000000000000}
Village Place,Village Place Park,540,Park,Neighborhood,9.78017427,Yes,1979,None,NE,11,5,Anaheim Ct & Albrook Dr,"186,733",14029 E Albrook Dr,,Denver,CO,,39.77793424,-104.83270965,PK,"Benches, Drinking Fountain, Picnic Shelter, Flower Beds, Picnic Tables, Playground, Basketball Court, Soccer Field, Baseball / Softball Field, Bike/Pedestrian Path, Picnic Area",documents/parkart/ParkArt_Village Place Park.pdf,images/Parks/villageplacepark.jpg,Yes,2008-11-25 00:00:00,{00000000-0000-0000-0000-000000000000}
Weir Gulch South,Weir Gulch Park - South of Alameda,837,Park,Community,10.50971467,Partial,1960,2010,SW,3,4,Sheridan & Center to Alameda & Xavier,,4900 W Alameda Ave,,Denver,CO,,39.71040916,-105.04972,,"Bike/Pedestrian Path, Weir Gulch Trail, Open Space, Natural Areas",documents/parkart/ParkArt_Weir Gulch Park.pdf,images/Parks/no_imagerec.gif,No,2009-02-18 00:00:00,{00000000-0000-0000-0000-000000000000}
